FEATURE2,NAME,POP_2010,LATITUDE,LONGITUDE
-999,Akutan,1027,54.1355556,-165.7730556
-999,Cold Bay,108,55.1858333,-162.7211111
-999,False Pass,35,54.8508333,-163.415
-999,King Cove,938,55.0616667,-162.3102778
-999,Belkofski,-999,55.0888889,-162.0305556
-999,Herendeen Bay,-999,55.7680556,-160.6858333
-999,Morzhovoi,-999,54.9069444,-163.3186111
-999,Port Moller,-999,55.9886111,-160.5769444
-999,Sanak,-999,54.4780556,-162.8175
-999,Unga,-999,55.1840915,-160.5050438
-999,Ikatan,-999,54.75,-163.3083333
County Seat,Sand Point,976,55.3397222,-160.4972222
-999,Nikolski,18,52.9380556,-168.8677778
-999,Unalaska,4376,53.8736111,-166.5366667
-999,Adak,326,51.88,-176.6580556
-999,Atka,61,52.1961111,-174.2005556
-999,Saint George,102,56.6,-169.5416667
-999,Saint Paul,479,57.1222222,-170.275
-999,Attu,-999,52.9375,173.2375
-999,Biorka,-999,53.8269444,-166.2080556
-999,Chernofski,-999,53.4083333,-167.55
-999,Amchitka,-999,51.5672222,178.8775
-999,Chugiak,-999,61.3888889,-149.4819444
-999,Eagle River,-999,61.3213889,-149.5677778
-999,Spenard,-999,61.1886111,-149.9063889
-999,Girdwood,-999,60.9425,-149.1663889
-999,Nunaka Valley,-999,61.2066667,-149.7683333
County Seat,Anchorage,291826,61.2180556,-149.9002778
-999,Kasigluk,569,60.8955556,-162.5180556
-999,Kipnuk,639,59.9388889,-164.0413889
-999,Kongiganak,439,59.9532731,-162.8951327
-999,Kwigillingok,321,59.8644444,-163.1341667
-999,Lime Village,29,61.3563889,-155.4355556
-999,Newtok,354,60.9427778,-164.6294444
-999,Akiachak,627,60.9094444,-161.4313889
-999,Atmautluak,277,60.8669444,-162.2730556
-999,Crooked Creek,105,61.87,-158.1108333
-999,Toksook Bay,590,60.5337752,-165.1036627
-999,Upper Kalskag,210,61.5418812,-160.3338521
-999,Oscarville,70,60.7227778,-161.77
-999,Red Devil,23,61.7611111,-157.3125
-999,Sleetmute,86,61.7025,-157.1697222
-999,Stony River,54,61.7830556,-156.5880556
-999,Tuluksak,373,61.1025,-160.9616667
-999,Tuntutuliak,408,60.3430556,-162.6630556
-999,Tununak,327,60.5855556,-165.2558333
-999,Akiak,346,60.9122222,-161.2138889
-999,Aniak,501,61.5783333,-159.5222222
-999,Bethel,6080,60.7922222,-161.7558333
-999,Chefornak,418,60.16,-164.2658333
-999,Chuathbaluk,118,61.5719444,-159.245
-999,Eek,296,60.2188889,-162.0244444
-999,Goodnews Bay,243,59.1188889,-161.5875
-999,Kwethluk,721,60.8122222,-161.4358333
-999,Lower Kalskag,282,61.5122222,-160.3580556
-999,Mekoryuk,191,60.3880556,-166.185
-999,Napakiak,354,60.6966667,-161.9519444
-999,Napaskiak,405,60.7080556,-161.7661111
-999,Nightmute,280,60.4794444,-164.7238889
-999,Nunapitchuk,496,60.8969444,-162.4594444
-999,Platinum,61,59.0130556,-161.8163889
-999,Quinhagak,669,59.7488889,-161.9158333
-999,Mertarvik,0,60.8109892,-164.4991078
-999,Kalskag,-999,61.5372222,-160.3052778
-999,Kashegelok,-999,60.8547222,-157.8338889
-999,Nyac,-999,61.0041667,-159.9405556
-999,Oskawalik,-999,61.7438889,-158.1927778
-999,Umkumiute,-999,60.4996523,-165.1988597
-999,Naknek,544,58.7283333,-157.0138889
-999,Koggiung,-999,58.8669444,-157.0075
-999,Libbyville,-999,58.7777778,-157.0530556
County Seat,King Salmon,374,58.6883333,-156.6613889
County Seat,South Naknek,79,58.7155556,-156.9980556
-999,McKinley Park,185,63.7327778,-148.9141667
-999,Cantwell,219,63.3916667,-148.9508333
-999,Anderson,246,64.3441667,-149.1869444
-999,Garner,-999,63.8291667,-148.9733333
-999,Suntrana,-999,63.8541667,-148.8483333
-999,Lignite,-999,63.9094444,-149.0183333
County Seat,Healy,1021,63.8569444,-148.9661111
-999,Koliganek,209,59.7286111,-157.2844444
-999,Togiak,817,59.0619444,-160.3763889
-999,Aleknagik,219,59.2730556,-158.6177778
-999,Clark's Point,62,58.8441667,-158.5508333
-999,Dillingham,2329,59.0397222,-158.4575
-999,Ekwok,115,59.3497222,-157.4752778
-999,Manokotak,442,58.9813889,-159.0583333
-999,New Stuyahok,510,59.4527778,-157.3119444
-999,Nushagak,-999,58.9480556,-158.4922222
-999,Ester,2422,64.8472222,-148.0144444
-999,Fox,417,64.9580556,-147.6183333
-999,College,12964,64.8569444,-147.8027778
-999,North Pole,2117,64.7511111,-147.3494444
-999,Aurora Lodge,-999,64.4705556,-146.9386111
-999,Chatanika,-999,65.1122222,-147.4772222
-999,Chena Hot Springs,-999,65.0530556,-146.0555556
-999,Lemeta,-999,64.8597222,-147.7322222
-999,Olnes,-999,65.0741667,-147.67
-999,Standard,-999,64.7808333,-148.5297222
-999,Harding Lake,-999,64.4212591,-146.8155178
County Seat,Fairbanks,31535,64.8377778,-147.7163889
-999,Excursion Inlet,12,58.4213889,-135.4366667
-999,Klukwan,95,59.3987031,-135.8885477
-999,Port Chilkoot,-999,59.2288889,-135.4377778
County Seat,Haines,1713,59.228589,-135.444114
-999,Hawk Inlet,-999,58.1258333,-134.7530556
-999,Auke Bay,-999,58.3833333,-134.6597222
-999,Douglas,-999,58.2755556,-134.3925
-999,Thane,-999,58.2641667,-134.3302778
-999,Tee Harbor,-999,58.4102778,-134.7558333
State Capital County Seat,Juneau,31275,58.3019444,-134.4197222
-999,Happy Valley,593,59.9472222,-151.7322222
-999,Hope,192,60.9202778,-149.6402778
-999,Kalifornsky,7850,60.4183333,-151.29
-999,Kasilof,549,60.3375,-151.2744444
-999,Moose Pass,219,60.4875,-149.3688889
-999,Ninilchik,883,60.0513889,-151.6688889
-999,Anchor Point,1930,59.7766667,-151.8313889
-999,Beluga,20,61.1411111,-151.0827778
-999,Clam Gulch,176,60.2311111,-151.3936111
-999,Cohoe,1364,60.3686111,-151.3063889
-999,Cooper Landing,289,60.49,-149.8341667
-999,Port Graham,177,59.3513889,-151.8297222
-999,Sterling,5617,60.5372222,-150.7647222
-999,Tyonek,171,61.0680556,-151.1369444
-999,Homer,5003,59.6425,-151.5483333
-999,Kachemak,472,59.6741531,-151.4373641
-999,Kenai,7100,60.5544444,-151.2583333
-999,Seldovia,255,59.4380556,-151.7113889
-999,Seward,2693,60.1041667,-149.4422222
-999,Kustatan,-999,60.7158333,-151.7475
-999,Millers Landing,-999,59.6675,-151.4347222
-999,Silvertip,-999,60.7505556,-149.3697222
-999,Jakolof Bay,-999,59.4469444,-151.5102778
County Seat,Soldotna,4163,60.4877778,-151.0583333
-999,Saxman,411,55.3183333,-131.5958333
-999,Loring,4,55.6025,-131.6361111
-999,Ward Cove,-999,55.4119444,-131.7227778
County Seat,Ketchikan,8050,55.3422222,-131.6461111
-999,Karluk,37,57.5719444,-154.4555556
-999,Akhiok,71,56.9455556,-154.1702778
-999,Larsen Bay,87,57.54,-153.9786111
-999,Old Harbor,218,57.2027778,-153.3038889
-999,Ouzinkie,161,57.9236111,-152.5022222
-999,Port Lions,194,57.8675,-152.8822222
-999,McCord,-999,57.1394444,-153.2011111
-999,Port O'Brien,-999,57.7319444,-153.3166667
-999,Port Wakefield,-999,58.0491667,-153.0525
-999,Port William,-999,58.4922222,-152.5827778
-999,Uyak,-999,57.6377778,-153.9994444
County Seat,Kodiak,6130,57.79,-152.4072222
-999,Igiugig,50,59.3277778,-155.8947222
-999,Iliamna,109,59.7567965,-154.9110837
-999,Ivanof Bay,7,55.9,-159.4833333
-999,Kokhanok,170,59.4394444,-154.7761111
-999,Levelock,69,59.1141667,-156.8588889
-999,Chignik Lagoon,78,56.3084393,-158.5302391
-999,Pedro Bay,42,59.7872222,-154.1061111
-999,Perryville,113,55.9139846,-159.1632767
-999,Port Alsworth,159,60.2025,-154.3127778
-999,Ugashik,12,57.5130556,-157.3975
-999,Chignik,91,56.2952778,-158.4022222
-999,Egegik,109,58.2155556,-157.3758333
-999,Newhalen,190,59.72,-154.8972222
-999,Nondalton,164,59.9736111,-154.8458333
-999,Pilot Point,68,57.5641667,-157.5791667
-999,Port Heiden,102,56.9325614,-158.6249699
-999,Kvichak,-999,58.9694444,-156.9305556
-999,Butte,3246,61.5422222,-149.0333333
-999,Chase,34,62.4491667,-150.1016667
-999,Chickaloon,272,61.7966667,-148.4627778
-999,Wasilla,7831,61.5813889,-149.4394444
-999,Petersville,4,62.4963889,-150.7655556
-999,Skwentna,37,61.9902778,-151.3977778
-999,Susitna,18,61.5436111,-150.5125
-999,Talkeetna,876,62.3238889,-150.1094444
-999,Trapper Creek,481,62.3166667,-150.2313889
-999,Willow,2102,61.7472222,-150.0375
-999,Houston,1912,61.6302778,-149.8180556
-999,Eureka Roadhouse,29,61.9386111,-147.1680556
-999,Chelatna Lodge,-999,62.4344444,-151.4044444
-999,Colorado,-999,63.1627778,-149.4358333
-999,Cottonwood,-999,61.5133333,-149.5641667
-999,Curry,-999,62.6147222,-150.0119444
-999,Eska,-999,61.7377778,-148.9086111
-999,Jonesville,-999,61.7305556,-148.9347222
-999,Knik,-999,61.4577778,-149.7288889
-999,Summit,-999,63.3313889,-149.1222222
-999,Sunshine,-999,62.1677778,-150.0730556
-999,Sutton,-999,61.7113889,-148.8941667
-999,Montana,-999,62.0797222,-150.0727778
-999,Broad Pass (historical),-999,63.2333333,-149.2666667
-999,Matanuska,-999,61.54187012,-149.2296753
County Seat,Palmer,5937,61.5997222,-149.1127778
-999,Shaktoolik,251,64.3338889,-161.1538889
-999,Shishmaref,563,66.2566667,-166.0719444
-999,Stebbins,556,63.5222222,-162.2880556
-999,Teller,229,65.2636111,-166.3608333
-999,Unalakleet,688,63.8730556,-160.7880556
-999,Wales,145,65.6091667,-168.0875
-999,White Mountain,190,64.6813889,-163.4055556
-999,Brevig Mission,388,65.3347222,-166.4891667
-999,Diomede,115,65.7581,-168.952
-999,Elim,330,64.6175,-162.2605556
-999,Gambell,681,63.7797222,-171.7411111
-999,Golovin,156,64.5433333,-163.0291667
-999,Koyuk,332,64.9319444,-161.1569444
-999,Nome,3598,64.5011111,-165.4063889
-999,Saint Michael,401,63.4780556,-162.0391667
-999,Savoonga,671,63.6941667,-170.4788889
-999,Haycock,-999,65.2097222,-161.1655556
-999,Mary's Igloo,-999,65.1477778,-165.0633333
-999,Lees Camp,-999,64.6202778,-164.3913889
-999,Tin City,-999,65.5586111,-167.9480556
-999,Wainwright,556,70.6369444,-160.0383333
-999,Point Lay,189,69.743857,-163.008442
-999,Prudhoe Bay,2174,70.2552778,-148.3372222
-999,Anaktuvuk Pass,324,68.1433333,-151.7358333
-999,Atqasuk,233,70.4691667,-157.3994444
-999,Kaktovik,239,70.1319444,-143.6238889
-999,Nuiqsut,402,70.2175,-150.9763889
-999,Point Hope,674,68.3486111,-166.7347222
-999,Umiat,-999,69.3669444,-152.1441667
-999,Deadhorse,-999,70.2055556,-148.5116667
County Seat,Barrow,4212,71.2905556,-156.7886111
-999,Shungnak,262,66.8880556,-157.1363889
-999,Noatak,514,67.5711111,-162.9652778
-999,Red Dog Mine,309,68.0755556,-162.8561111
-999,Ambler,258,67.0861111,-157.8513889
-999,Buckland,416,65.9797222,-161.1230556
-999,Deering,122,66.0755556,-162.7172222
-999,Kiana,361,66.975,-160.4227778
-999,Kivalina,374,67.7269444,-164.5333333
-999,Kobuk,151,66.9072222,-156.8811111
-999,Noorvik,668,66.8383333,-161.0327778
-999,Selawik,829,66.6038889,-160.0069444
-999,Candle,-999,65.9133333,-161.9244444
-999,Kiwalik,-999,66.0227778,-161.8419444
County Seat,Kotzebue,3201,66.8983333,-162.5966667
-999,New Tokeen,-999,55.9363889,-133.3241667
-999,Metlakatla,1405,55.1291667,-131.5722222
-999,Edna Bay,42,55.9488889,-133.6622222
-999,Hollis,112,55.5566667,-132.6363889
-999,Naukati Bay,113,55.8736111,-133.1847222
-999,Thorne Bay,471,55.6877778,-132.5222222
-999,Point Baker,15,56.3527778,-133.6211111
-999,Coffman Cove,176,56.0138889,-132.8277778
-999,Craig,1201,55.4763889,-133.1483333
-999,Hydaburg,376,55.2080556,-132.8266667
-999,Kasaan,49,55.5388889,-132.4008333
-999,Klawock,755,55.5522222,-133.0958333
-999,Hyder,87,55.9169444,-130.0247222
-999,Annette,-999,55.0616667,-131.5416667
-999,Tokeen,-999,55.9944444,-133.4638889
-999,Bell Island Hot Springs,-999,55.9316667,-131.5652778
-999,Cape Pole,-999,55.965,-133.7933333
-999,Salt Chuck,-999,55.6263889,-132.5536111
-999,Waterfall,-999,55.2972222,-133.2405556
-999,Long Island,-999,54.9169444,-132.6791667
-999,Todd,-999,57.4611111,-135.0397222
-999,Baranof,-999,57.0894444,-134.8330556
-999,Chatham,-999,57.5152778,-134.9436111
-999,Port Armstrong,-999,56.2969444,-134.6616667
County Seat,Sitka,8881,57.0530556,-135.33
-999,Elfin Cove,20,58.1944444,-136.3433333
-999,Tenakee Springs,131,57.7808333,-135.2188889
-999,Angoon,459,57.5033333,-134.5838889
-999,Gustavus,442,58.4133333,-135.7369444
-999,Hoonah,760,58.11,-135.4436111
-999,Pelican,88,57.9608333,-136.2275
-999,Funter,-999,58.2563889,-134.8958333
-999,Sunnyside,-999,57.9827778,-136.2522222
County Seat,Skagway,920,59.4583333,-135.3138889
-999,Deltana,2251,63.871711,-145.2146373
-999,Dot Lake,13,63.6613889,-144.0644444
-999,Eagle Village,67,64.7805556,-141.1136111
-999,Big Delta,591,64.1525,-145.8422222
-999,Chicken,7,64.0733333,-141.9361111
-999,Northway,71,62.9616667,-141.9372222
-999,Tanacross,136,63.3852778,-143.3463889
-999,Tetlin,127,63.1350512,-142.5238796
-999,Tok,1258,63.3366667,-142.9855556
-999,Delta Junction,958,64.0377778,-145.7322222
-999,Eagle,86,64.7880556,-141.2
-999,Donnelly,-999,63.6736111,-145.8833333
-999,Alcan,-999,62.7230556,-141.1880556
-999,Gakona,218,62.3019444,-145.3019444
-999,Glennallen,483,62.1091667,-145.5463889
-999,Gulkana,119,62.2713889,-145.3822222
-999,Kenny Lake,355,61.7191667,-144.9483333
-999,McCarthy,28,61.4333333,-142.9216667
-999,Mentasta Lake,112,62.9211111,-143.7691667
-999,Chisana,0,62.0661111,-142.0408333
-999,Chistochina,93,62.5717828,-144.6541704
-999,Chitina,126,61.5158333,-144.4369444
-999,Copper Center,328,61.9769598,-145.3297294
-999,Valdez,3976,61.1308333,-146.3483333
-999,Whittier,220,60.7730556,-148.6838889
-999,Paxson,40,63.0897222,-145.6130556
-999,Slana,147,62.7069444,-143.9611111
-999,Tatitlek,88,60.8647222,-146.6786111
-999,Tonsina,78,61.6558333,-145.1752778
-999,Cordova,2239,60.5427778,-145.7575
-999,Nabesna,5,62.3719444,-143.0086111
-999,Lower Tonsina,-999,61.655,-144.6586111
-999,May Creek,-999,61.3486111,-142.6933333
-999,Crystal Falls,-999,60.4858333,-145.7291667
-999,Ellamar,-999,60.8955556,-146.6975
-999,Katalla,-999,60.1972222,-144.5183333
-999,Port Ashton,-999,60.0575,-148.0522222
-999,Eyak,-999,60.526294,-145.6351157
-999,Cape Yakataga,-999,60.0663889,-142.4308333
-999,Pitkas Point,109,62.0327778,-163.2877778
-999,Alakanuk,677,62.6888889,-164.6152778
-999,Chevak,938,61.5277778,-165.5863889
-999,Emmonak,762,62.7777778,-164.5230556
-999,Hooper Bay,1093,61.5311111,-166.0966667
-999,Kotlik,577,63.0341667,-163.5533333
-999,Marshall,414,61.8777778,-162.0811111
-999,Mountain Village,813,62.0855556,-163.7294444
-999,Nunam Iqua,187,62.5336111,-164.8411111
-999,Pilot Station,568,61.9388889,-162.875
-999,Russian Mission,312,61.785,-161.3202778
-999,Saint Mary's,507,62.0706739,-163.2737791
-999,Scammon Bay,474,61.8427778,-165.5816667
-999,Bill Moores,-999,62.9497222,-163.7788889
-999,Chaniliut,-999,63.0411111,-163.3933333
-999,Wrangell,-999,56.4708333,-132.3766667
-999,Meyers Chuck,-999,55.7408333,-132.2563889
-999,Kake,557,56.9758333,-133.9472222
-999,Petersburg,2948,56.8112667,-132.9512425
County Seat,Yakutat,662,59.5469444,-139.7272222
-999,Flat,0,62.4536111,-158.0075
-999,Lake Minchumina,13,63.8827778,-152.3122222
-999,Livengood,13,65.5244444,-148.5447222
-999,Manley Hot Springs,89,65.0011111,-150.6338889
-999,Minto,210,65.150411,-149.349708
-999,Alatna,37,66.5572222,-152.7072222
-999,Arctic Village,152,68.1269444,-145.5377778
-999,Beaver,84,66.3594444,-147.3963889
-999,Central,96,65.5725,-144.8030556
-999,Chalkyitsik,69,66.6544444,-143.7222222
-999,Circle,104,65.8255556,-144.0605556
-999,Coldfoot,10,67.2563889,-150.1841667
-999,Tanana,246,65.1719444,-152.0788889
-999,Rampart,24,65.505,-150.17
-999,Stevens Village,78,66.0063889,-149.0908333
-999,Takotna,52,62.9886111,-156.0641667
-999,Venetie,166,67.0138889,-146.4186111
-999,Wiseman,14,67.41,-150.1075
-999,Allakaket,105,66.5655556,-152.6455556
-999,Anvik,85,62.6561111,-160.2066667
-999,Bettles,12,66.9188889,-151.5161111
-999,Fort Yukon,583,66.5647222,-145.2738889
-999,Galena,470,64.7333333,-156.9275
-999,Grayling,194,62.9036111,-160.0647222
-999,Holy Cross,178,62.1994444,-159.7713889
-999,Hughes,77,66.0488889,-154.2555556
-999,Huslia,275,65.6986111,-156.3997222
-999,Kaltag,190,64.3272222,-158.7219444
-999,Koyukuk,96,64.8802778,-157.7008333
-999,McGrath,346,62.9563889,-155.5958333
-999,Nenana,378,64.5638889,-149.0930556
-999,Nikolai,94,63.0133333,-154.375
-999,Nulato,264,64.7194444,-158.1030556
-999,Ruby,166,64.7394444,-155.4869444
-999,Shageluk,83,62.6822222,-159.5619444
-999,Chandalar,-999,67.5052778,-148.4936111
-999,Eureka,-999,65.1794444,-150.2144444
-999,Folger,-999,63.5616667,-156.0833333
-999,Gost Creek,-999,62.2105556,-159.7858333
-999,Hogatza,-999,66.1897222,-155.7172222
-999,Holikachuk,-999,62.9097222,-159.5175
-999,Kokrines,-999,64.9377778,-154.6919444
-999,Long,-999,64.4036111,-155.4972222
-999,Medfra,-999,63.1066667,-154.7141667
-999,Miller House,-999,65.5241667,-145.2161111
-999,Old Minto,-999,64.8872222,-149.1747222
-999,Ophir,-999,63.1447222,-156.5194444
-999,Paradise,-999,62.4155556,-160.0491667
-999,Telida,-999,63.3838889,-153.2822222
-999,Tofty,-999,65.0933333,-150.8772222
-999,Woodchopper,-999,65.0511111,-151.0094444
-999,Circle Hot Springs,-999,65.4833333,-144.6341667
-999,Autaugaville,870,32.4340249,-86.6547019
-999,Billingsley,144,32.659575,-86.717761
-999,Marbury,1418,32.7012405,-86.4710876
-999,Pine Level,4183,32.5837436,-86.4655311
-999,Booth,-999,32.5004124,-86.5719223
-999,Jones,-999,32.5840214,-86.8974878
County Seat,Prattville,33960,32.4640245,-86.4596966
-999,Point Clear,2125,30.4740845,-87.9191598
-999,Fairhope,15326,30.5229719,-87.9033261
-999,Foley,14618,30.4065868,-87.6835974
-999,Gulf Shores,9741,30.2460361,-87.7008193
-999,Daphne,21570,30.6035255,-87.9036047
-999,Orange Beach,5441,30.2943681,-87.5735935
-999,Robertsdale,5276,30.5538048,-87.7119324
-999,Spanish Fort,6798,30.6749127,-87.9152724
-999,Loxley,1632,30.6182476,-87.7530454
-999,Magnolia Springs,723,30.3996424,-87.7761001
-999,Elberta,1498,30.4143646,-87.5977615
-999,Summerdale,862,30.4876954,-87.6997094
-999,Silverhill,706,30.5454715,-87.7516559
-999,Perdido Beach,581,30.3407558,-87.5049805
-999,Seminole,-999,30.5151954,-87.4738692
-999,Fort Morgan,-999,30.2285373,-88.023053
-999,Gasque,-999,30.2532585,-87.8197124
-999,Tensaw,-999,31.1568421,-87.7991608
-999,Lillian,-999,30.4129759,-87.4369228
-999,Perdido,-999,31.0076815,-87.627209
-999,Stapleton,-999,30.742689,-87.7933252
-999,Stockton,-999,30.9937926,-87.8580499
County Seat,Bay Minette,8044,30.8829628,-87.7730474
-999,Eufaula,13137,31.8912717,-85.1454876
-999,Clio,1399,31.7087753,-85.6104972
-999,Blue Springs,96,31.6637769,-85.5066063
-999,Louisville,519,31.7834963,-85.5557751
-999,Comer,-999,32.0329338,-85.3832732
-999,Mount Andrew,-999,31.9712682,-85.5246654
-999,Texasville,-999,31.7151652,-85.4243829
-999,Bakerhill,279,31.7812748,-85.3021583
-999,Batesville,-999,32.0090463,-85.3110485
County Seat,Clayton,3008,31.8782162,-85.4496627
-999,Brent,4947,32.9373463,-87.1647184
-999,West Blocton,1240,33.1181748,-87.1249954
-999,Woodstock,1428,33.2067835,-87.1499961
-999,Marvel,-999,33.1467847,-87.0030481
-999,Ashby,-999,33.0209548,-86.9194347
-999,Eoline,-999,32.9951227,-87.2322201
-999,Lawley,-999,32.8595702,-86.9513796
-999,Randolph,-999,32.8995691,-86.910823
County Seat,Centreville,2778,32.9445682,-87.1386067
-999,Smoke Rise,1825,33.8917677,-86.8202746
-999,Allgood,622,33.9120429,-86.5094315
-999,Blountsville,1684,34.0814863,-86.5911027
-999,Hayden,444,33.8926003,-86.757773
-999,Highland Lake,412,33.8850986,-86.4197059
-999,Locust Fork,1186,33.9075992,-86.6152685
-999,Cleveland,1303,33.9909316,-86.5774905
-999,County Line,258,33.8214894,-86.7186038
-999,Susan Moore,763,34.0837078,-86.4283186
-999,Nectar,345,33.9598211,-86.6394367
-999,Rosa,316,33.9906534,-86.5133214
-999,Snead,835,34.1195406,-86.3955398
-999,Brooksville,-999,34.1620404,-86.4755431
-999,Hendrix,-999,34.0381528,-86.4533194
-999,Summit,-999,34.20454,-86.4941552
-999,Lehigh,-999,33.8542668,-86.6838811
-999,Bangor,-999,33.974544,-86.7566634
County Seat,Oneonta,6567,33.9481537,-86.472764
-999,Midway,499,32.0770977,-85.5221667
-999,Fitzpatrick,83,32.2165343,-85.8888432
-999,Aberfoil,-999,32.0704299,-85.6877257
-999,Shopton,-999,32.1170928,-85.9421765
-999,Perote,-999,31.9476561,-85.7052243
-999,Inverness,-999,32.0148757,-85.7460594
-999,Mitchell,-999,32.2462551,-85.9377335
-999,Peachburg,-999,32.1637604,-85.6241145
County Seat,Union Springs,3980,32.144316,-85.7149495
-999,McKenzie,530,31.542384,-86.71497
-999,Georgiana,1738,31.6371028,-86.7419175
-999,Bolling,-999,31.7254334,-86.7058078
-999,Forest Home,-999,31.8623735,-86.8427575
-999,Garland,-999,31.5565503,-86.8233063
-999,Chapman,-999,31.6712685,-86.7121955
County Seat,Greenville,8135,31.8295972,-86.6177517
-999,Alexandria,3917,33.7739892,-85.885523
-999,Saks,10744,33.6987135,-85.8396879
-999,Oxford,21348,33.6142714,-85.8349648
-999,Piedmont,4878,33.9245454,-85.6113501
-999,Jacksonville,12548,33.8137125,-85.7613536
-999,Weaver,3038,33.7520457,-85.8113543
-999,Hobson City,771,33.6214934,-85.8441318
-999,Ohatchee,1170,33.7834324,-86.0024703
-999,Choccolocco,2804,33.6592714,-85.7035728
-999,Nances Creek,407,33.8578794,-85.6569065
-999,White Plains,811,33.7473247,-85.6891289
-999,West End,-999,33.6428814,-85.8674659
-999,Eulaton,-999,33.6456587,-85.9124671
-999,Wellington,-999,33.8225999,-85.8927457
-999,DeArmanville,-999,33.6264941,-85.7513516
-999,Bynum,-999,33.6131592,-85.9610793
-999,Blue Mountain,-999,33.6845471,-85.8427434
County Seat,Anniston,23106,33.6598257,-85.8316318
-999,Huguley,2540,32.8345732,-85.2296647
-999,Lanett,6468,32.86836423,-85.20061858
-999,Valley,9524,32.8187406,-85.1793852
-999,Five Points,141,33.0181788,-85.3502251
-999,Waverly,145,32.735408,-85.5791191
-999,Cusseta,123,32.7848521,-85.3057779
-999,Abanda,192,33.100954,-85.5296753
-999,Fredonia,199,32.9898462,-85.2885564
-999,Penton,201,33.0065121,-85.4655064
-999,Standing Rock,168,33.0798443,-85.2530002
-999,Stroud,-999,33.0548446,-85.3307802
-999,Evansville,-999,33.0662337,-85.2241104
-999,Shawmut,-999,32.84287311,-85.18674841
County Seat,Lafayette,3003,32.8998485,-85.4010593
-999,Leesburg,1027,34.1798177,-85.7613555
-999,Cedar Bluff,1820,34.2200942,-85.6077402
-999,Gaylesville,144,34.268426,-85.5569057
-999,Sand Rock,560,34.2428717,-85.768578
-999,Broomtown,182,34.3606453,-85.5216276
-999,Spring Garden,238,33.9728782,-85.5538487
-999,Blanche,-999,34.3634232,-85.6099634
-999,Forney,-999,34.0862088,-85.4619021
-999,Little River,-999,34.2814815,-85.6732979
-999,Pleasant Gap,-999,33.9876002,-85.5199589
County Seat,Centre,3489,34.1520406,-85.6788531
-999,Jemison,2585,32.9598451,-86.7466522
-999,Maplesville,708,32.7884608,-86.8716549
-999,Thorsby,1980,32.9156796,-86.7158178
-999,Lomax,-999,32.8790138,-86.6608162
-999,Pletcher,-999,32.7029074,-86.7849854
-999,Mountain Creek,-999,32.7106848,-86.4788657
-999,Verbena,-999,32.7498505,-86.5113668
-999,Cooper,-999,32.7751276,-86.5455347
-999,Stanton,-999,32.7356845,-86.899711
County Seat,Clanton,8619,32.8387371,-86.6294262
-999,Lisman,539,32.1687554,-88.2825251
-999,Gilbertown,215,31.8770975,-88.3214089
-999,Toxey,137,31.9129297,-88.3094648
-999,Needham,94,31.9879272,-88.3366906
-999,Pennington,221,32.2070888,-88.0561287
-999,Silas,452,31.7654349,-88.3291841
-999,Cullomburg,171,31.7137695,-88.2969594
-999,Land,-999,32.0287593,-88.3283577
-999,Melvin,-999,31.9304297,-88.4589178
-999,Cromwell,-999,32.2287537,-88.2744705
County Seat,Butler,1894,32.0895908,-88.2219652
-999,Jackson,5228,31.5090521,-87.8944435
-999,Thomasville,4209,31.9134859,-87.7358367
-999,Coffeeville,352,31.7579353,-88.0897308
-999,Fulton,272,31.7884881,-87.7272221
-999,Carlton,65,31.343224,-87.8455522
-999,Whatley,150,31.6507136,-87.7049967
-999,Rockville,43,31.4201657,-87.842497
-999,Campbell,-999,31.9234868,-87.9811207
-999,Salitpa,-999,31.6296054,-88.0200047
-999,Choctaw Bluff,-999,31.3887777,-87.7888843
County Seat,Grove Hill,1570,31.7087681,-87.7772218
-999,Lineville,2395,33.3106696,-85.7544051
-999,Delta,197,33.4401108,-85.690515
-999,Hollins,545,33.1176177,-86.1444152
-999,Millerville,278,33.1915052,-85.9257985
-999,Pyriton,-999,33.3631675,-85.8338521
-999,Cragford,-999,33.2509495,-85.6724581
County Seat,Ashland,2037,33.2737256,-85.8360741
-999,Edwardsville,202,33.7073272,-85.5091235
-999,Fruithurst,284,33.7309382,-85.4338442
-999,Ranburne,409,33.5228885,-85.3446728
-999,Hollis Crossroads,608,33.52372,-85.6371806
-999,Borden Springs,-999,33.9298234,-85.470235
County Seat,Heflin,3480,33.6489948,-85.5874584
-999,Enterprise,26562,31.3151708,-85.8552161
-999,Kinston,540,31.2160045,-86.1710579
-999,New Brockton,1146,31.3857239,-85.9293861
County Seat,Elba,3940,31.4146108,-86.0677243
-999,Muscle Shoals,13146,34.7448112,-87.6675292
-999,Sheffield,9039,34.7650887,-87.6986407
-999,Leighton,729,34.700923,-87.5289151
-999,Littleville,1011,34.5906483,-87.6769745
-999,Cherokee,1048,34.7570342,-87.9728143
-999,Barton,-999,34.738701,-87.8911457
County Seat,Tuscumbia,8423,34.7312005,-87.70253
-999,Castleberry,583,31.2990599,-87.0224721
-999,Repton,282,31.4090551,-87.2391473
-999,Brooklyn,-999,31.2626708,-86.7710749
-999,Range,-999,31.3126694,-87.2355341
County Seat,Evergreen,3944,31.4334994,-86.9569176
-999,Kellyton,217,32.9798441,-86.033578
-999,Goodwater,1475,33.065675,-86.0533013
-999,Hissop,658,32.8923461,-86.1533028
-999,Mount Olive,371,33.0695635,-86.1349703
-999,Ray,443,32.8873466,-86.0377439
-999,Stewartville,1767,33.0792852,-86.2444177
-999,Weogufka,282,33.0165092,-86.3121969
County Seat,Rockford,477,32.8895681,-86.2196936
-999,Opp,6659,31.2826685,-86.2555067
-999,Babbie,603,31.2796139,-86.3255085
-999,Carolina,297,31.2407285,-86.5277351
-999,Heath,254,31.3607243,-86.4696811
-999,Horn Hill,228,31.2457259,-86.3166187
-999,Libertyville,117,31.2415614,-86.4613446
-999,Lockhart,516,31.0104576,-86.3496691
-999,Florala,1980,31.00518,-86.3280018
-999,Gantt,222,31.4068339,-86.4841273
-999,Onycha,184,31.21406,-86.2832837
-999,Red Level,487,31.4071111,-86.6121861
-999,River Falls,526,31.3529468,-86.5391273
-999,Sanford,241,31.2982254,-86.3891217
-999,Brooks,-999,31.4818306,-86.6849677
-999,County Line,-999,31.2835021,-86.1949489
County Seat,Andalusia,9015,31.3085039,-86.4832913
-999,Brantley,809,31.5823832,-86.2571786
-999,Dozier,329,31.4921084,-86.3649582
-999,Glenwood,187,31.6646032,-86.1713444
-999,Petrey,58,31.8487645,-86.2077382
-999,Rutledge,467,31.7304339,-86.3096846
-999,Highland Home,-999,31.9534835,-86.3138546
-999,Honoraville,-999,31.8507084,-86.4060788
County Seat,Luverne,2800,31.7165455,-86.2638492
-999,Hanceville,2982,34.0606545,-86.767498
-999,Baileyton,610,34.2623179,-86.6127712
-999,Holly Pond,798,34.1742634,-86.616382
-999,Colony,268,33.9412994,-86.9015461
-999,Dodge City,593,34.0406562,-86.8858344
-999,Fairview,446,34.2553741,-86.6880519
-999,Garden City,492,34.0145436,-86.7469414
-999,Good Hope,2264,34.1159328,-86.8636124
-999,West Point,586,34.2387103,-86.9591727
-999,South Vinemont,749,34.2389871,-86.8644471
-999,East Point,201,34.1831536,-86.7936109
-999,Joppa,501,34.2978726,-86.5561022
-999,Arkadelphia,-999,33.9051027,-86.9625006
-999,Bremen,-999,33.9945465,-86.9700027
-999,Jones Chapel,-999,34.2103784,-87.051953
County Seat,Cullman,14775,34.1748208,-86.8436124
-999,Daleville,5295,31.3101719,-85.7129908
-999,Ariton,764,31.6001655,-85.7188298
-999,Level Plains,2085,31.2996162,-85.7779914
-999,Midland City,2344,31.3190612,-85.4938239
-999,Napier Field,354,31.3154506,-85.4541013
-999,Clayhatchee,589,31.2357293,-85.7227118
-999,Grimes,558,31.3046175,-85.44799
-999,Newton,1511,31.3351716,-85.6052133
-999,Pinckard,647,31.3115612,-85.5529906
-999,Clopton,-999,31.6085002,-85.4299374
-999,Echo,-999,31.4757245,-85.4657698
County Seat,Ozark,14907,31.4590576,-85.6404932
-999,Valley Grande,4020,32.5090233,-86.98749
-999,Orrville,204,32.3062505,-87.2455492
-999,Hazen,-999,32.3401384,-87.203882
-999,Minter,-999,32.0779224,-86.9935961
-999,Sardis,-999,32.2876393,-86.9858206
-999,Selmont,-999,32.3951369,-87.0083225
-999,Tyler,-999,32.3393048,-86.8797072
-999,West Selmont,-999,32.3912481,-87.0172115
-999,Burnsville,-999,32.4745795,-86.8916536
-999,Marion Junction,-999,32.437358,-87.2388839
-999,Safford,-999,32.2879179,-87.3713857
-999,Plantersville,-999,32.6567975,-86.9244334
County Seat,Selma,20756,32.4073589,-87.0211007
-999,Rainsville,4948,34.4942536,-85.8477494
-999,Henagar,2344,34.635084,-85.7671936
-999,Ider,723,34.7142484,-85.6808031
-999,Lakeview,143,34.3909232,-85.9783077
-999,Mentone,360,34.5795282,-85.5905204
-999,Collinsville,1983,34.2639821,-85.8605251
-999,Crossville,1862,34.2875925,-85.99414
-999,Fyffe,1018,34.446755,-85.9041396
-999,Geraldine,896,34.3514798,-86.0008078
-999,Hammondville,488,34.5817507,-85.6266327
-999,Sylvania,1837,34.5623077,-85.8124715
-999,Valley Head,558,34.5689732,-85.6149654
-999,Pine Ridge,282,34.4395327,-85.7844134
-999,Powell,955,34.2864816,-85.7494111
-999,Shiloh,274,34.4625878,-85.8796945
-999,Portersville,-999,34.3212028,-85.8208023
-999,Collbran,-999,34.3759234,-85.7785794
County Seat,Fort Payne,14012,34.4442547,-85.7196893
-999,Blue Ridge,1341,32.4926352,-86.1905228
-999,Millbrook,14640,32.4798575,-86.3619163
-999,Tallassee,4819,32.5359683,-85.8932923
-999,Coosada,1224,32.4979127,-86.3313602
-999,Deatsville,1154,32.6081874,-86.3958072
-999,Eclectic,1001,32.6354093,-86.0344079
-999,Elmore,1262,32.5387448,-86.3149712
-999,Emerald Mountain,2561,32.4396412,-86.0857505
-999,Holtville,4096,32.6362421,-86.326639
-999,Redland,3736,32.4755436,-86.1372662
-999,Kent,-999,32.6190212,-85.9485721
-999,Wallsboro,-999,32.5867991,-86.2091353
-999,Red Hill,-999,32.6851304,-85.9430171
County Seat,Wetumpka,6528,32.5437448,-86.2119127
-999,Atmore,10194,31.0237921,-87.4938708
-999,East Brewton,2478,31.0932339,-87.0627469
-999,Flomaton,1440,31.000182,-87.2608071
-999,Pollard,137,31.0271252,-87.1735825
-999,Riverview,184,31.0604573,-87.0599683
-999,Huxford,-999,31.2201734,-87.4619291
-999,Bradley,-999,31.033513,-86.7255128
-999,Dixie,-999,31.1446197,-86.719404
County Seat,Brewton,5408,31.1051779,-87.0721918
-999,Attalla,6048,34.0217639,-86.0885852
-999,Glencoe,5160,33.957043,-85.9324698
-999,Rainbow City,9602,33.9548201,-86.0419169
-999,Hokes Bluff,4286,33.9981546,-85.8663574
-999,Altoona,933,34.0262082,-86.3260923
-999,Southside,8412,33.9245425,-86.0224718
-999,Walnut Grove,698,34.0656522,-86.3063695
-999,Reece City,653,34.0723186,-86.0333062
-999,Ridgeville,112,34.0556522,-86.1021968
-999,Sardis City,1704,34.1742616,-86.1227533
-999,Ballplay,1580,34.0587093,-85.8080229
-999,Egypt,932,34.0737075,-86.1558093
-999,Gallant,855,33.9987084,-86.245256
-999,Ivalee,879,34.0345413,-86.1452534
-999,Whitesboro,2138,34.1634283,-86.0694185
-999,Carlisle,-999,34.1289845,-86.1202531
-999,Keener,-999,34.1562063,-85.9510823
-999,Rockledge,2543,34.0892628,-86.1127527
-999,Wilsonia,-999,34.0998188,-85.9041365
-999,Mountainboro,-999,34.1470397,-86.1305312
County Seat,Gadsden,36856,34.014264,-86.0066386
-999,Belk,215,33.647611,-87.9314109
-999,Berry,1148,33.6598332,-87.6000098
-999,Bazemore,-999,33.8945496,-87.7000188
-999,Newtonville,-999,33.5453906,-87.8014047
County Seat,Fayette,4619,33.6845539,-87.8308522
-999,Red Bay,3158,34.4398202,-88.1408747
-999,Hodges,288,34.3270425,-87.9264233
-999,Vina,358,34.3764873,-88.0586497
-999,Phil Campbell,1148,34.3509299,-87.706418
-999,Belgreen,129,34.474818,-87.8664241
-999,Spruce Pine,222,34.3920405,-87.7264193
-999,Pleasant Site,-999,34.5420398,-88.0653178
-999,Isbell,-999,34.4553732,-87.7539211
County Seat,Russellville,9830,34.5078726,-87.7286432
-999,Hartford,2624,31.1023998,-85.6968778
-999,Black,207,31.0093468,-85.7443772
-999,Samson,1940,31.1129539,-86.0460518
-999,Slocomb,1980,31.1082335,-85.594378
-999,Malvern,1448,31.1393439,-85.5191005
-999,Coffee Springs,228,31.1646193,-85.9093821
-999,Eunola,243,31.0399013,-85.847435
-999,Chancellor,-999,31.1815634,-85.8771592
-999,Hacoda,-999,31.0748994,-86.1663325
County Seat,Geneva,4452,31.0329572,-85.8638242
-999,Boligee,328,32.7559654,-88.0289072
-999,Forkland,649,32.6481893,-87.8833475
-999,Union,237,32.988181,-87.915016
-999,Clinton,-999,32.9137387,-87.992518
-999,Knoxville,-999,32.9923471,-87.7905674
County Seat,Eutaw,2934,32.8406848,-87.8875145
-999,Akron,356,32.8765165,-87.7425105
-999,Moundville,2427,32.9976242,-87.6300075
-999,Newbern,186,32.5931884,-87.5327815
-999,Cypress,-999,32.9479033,-87.6669528
-999,Gallion,-999,32.4968025,-87.7161204
-999,Sawyerville,-999,32.7517973,-87.7294547
County Seat,Greensboro,2497,32.7045753,-87.5958396
-999,Headland,4510,31.351284,-85.3421559
-999,Haleburg,103,31.406562,-85.1371526
-999,Newville,539,31.4218379,-85.337712
-999,Shorterville,-999,31.570169,-85.1013186
County Seat,Abbeville,2688,31.5718352,-85.2504893
-999,Ashford,2148,31.1829562,-85.236321
-999,Avon,543,31.1893444,-85.2860437
-999,Kinsey,2198,31.299063,-85.3443778
-999,Madrid,350,31.0357372,-85.3932663
-999,Columbia,740,31.2926762,-85.1115965
-999,Cottonwood,1289,31.0487933,-85.3049326
-999,Cowarts,1871,31.2001772,-85.3046549
-999,Gordon,332,31.1412918,-85.0965965
-999,Taylor,2375,31.164899,-85.468267
-999,Webb,1430,31.2604534,-85.2732658
-999,Rehobeth,1297,31.1229561,-85.4527113
-999,Crosby,-999,31.038795,-85.0863188
County Seat,Dothan,65496,31.2232313,-85.3904889
-999,Bridgeport,2418,34.9475807,-85.7144155
-999,Hollywood,1000,34.72425,-85.9724787
-999,Hytop,354,34.916196,-86.0880384
-999,Langston,270,34.5389756,-86.0744234
-999,Dutton,315,34.6109183,-85.91692
-999,Stevenson,2046,34.8686933,-85.8394199
-999,Woodville,746,34.6278654,-86.2744286
-999,Paint Rock,210,34.660644,-86.3288745
-999,Pisgah,722,34.6809168,-85.8477523
-999,Pleasant Groves,420,34.73502,-86.2054073
-999,Section,770,34.5789747,-85.986644
-999,Skyline,851,34.8139739,-86.1152603
-999,Fackler,-999,34.7925827,-85.9099775
-999,Flat Rock,-999,34.7698032,-85.6944152
-999,Rosalie,-999,34.699805,-85.7685836
-999,Lim Rock,-999,34.6723086,-86.188316
-999,Long Island,-999,34.9736909,-85.6710804
-999,Pleasant Grove,-999,34.9436942,-85.9216452
County Seat,Scottsboro,14770,34.6723069,-86.0341463
-999,Edgewater,883,33.5267732,-86.9577715
-999,Concord,1837,33.4676085,-87.0311058
-999,Forestdale,10162,33.5701054,-86.8963819
-999,Adamsville,4522,33.6009389,-86.9561059
-999,McDonald Chapel,717,33.521773,-86.9336042
-999,Minor,1094,33.5373284,-86.9405491
-999,Mount Olive,4079,33.67212345,-86.85507636
-999,Fairfield,11117,33.4859402,-86.9119366
-999,Fultondale,8380,33.6048261,-86.79388
-999,Gardendale,13893,33.6601033,-86.8127702
-999,Graysville,2165,33.6206611,-86.9713844
-999,Bessemer,27456,33.4017766,-86.954437
-999,Brighton,2945,33.4342755,-86.9472148
-999,Center Point,16921,33.6456583,-86.6836001
-999,Clay,9708,33.7026013,-86.5997096
-999,Midfield,5365,33.4614966,-86.9088808
-999,Mountain Brook,20413,33.5009384,-86.7522107
-999,Pleasant Grove,10110,33.4909405,-86.9702714
-999,Homewood,25167,33.4717732,-86.8008228
-999,Hoover,81619,33.4053867,-86.8113782
-999,Hueytown,16105,33.4512197,-86.9966606
-999,Irondale,12349,33.5381601,-86.7072102
-999,Leeds,11773,33.5481597,-86.5444288
-999,Lipscomb,2210,33.4256646,-86.9266588
-999,Argo,4071,33.6817681,-86.5305409
-999,Brookside,1363,33.6378825,-86.9166612
-999,Cardiff,55,33.6456604,-86.9336061
-999,Tarrant,6397,33.5834373,-86.7727681
-999,Trussville,19933,33.6198251,-86.6088756
-999,Vestavia Hills,34033,33.4487183,-86.7877668
-999,Warrior,3176,33.8142682,-86.8094394
-999,Kimberly,2711,33.7734352,-86.8138832
-999,Maytown,385,33.53594,-86.997217
-999,Morris,1859,33.7481576,-86.8086048
-999,Mulga,836,33.5498286,-86.9741612
-999,Sylvan Springs,1542,33.5156628,-87.0149948
-999,Trafford,646,33.8181563,-86.7427712
-999,West Jefferson,338,33.6492731,-87.0686089
-999,North Johns,145,33.3673343,-87.1036067
-999,Pinson,7163,33.6889908,-86.6833229
-999,Bluff Park,-999,33.4014982,-86.8561014
-999,Dolomite,-999,33.4628858,-86.961382
-999,Short Creek,-999,33.5512189,-87.1013859
-999,Valley Creek,-999,33.3876113,-87.0722172
-999,Village Springs,-999,33.7584339,-86.6386003
-999,Cahaba Heights,-999,33.4639953,-86.7319322
-999,Chalkville,-999,33.653158,-86.6477659
County Seat,Birmingham,212237,33.5206608,-86.80249
-999,Beaverton,201,33.9312162,-88.0203075
-999,Sulligent,1927,33.9017738,-88.1344776
-999,Kennedy,447,33.5870574,-87.9844675
-999,Millport,1049,33.5634478,-88.0814159
-999,Detroit,237,34.0281608,-88.1700368
-999,Crossville,-999,33.7439976,-88.0022479
County Seat,Vernon,2000,33.7570541,-88.1089185
-999,Anderson,282,34.9284179,-87.266407
-999,Killen,1108,34.8628637,-87.5375253
-999,Lexington,735,34.9692501,-87.3711316
-999,Waterloo,203,34.9181425,-88.064203
-999,Rogersville,1257,34.8256425,-87.2947417
-999,Saint Florian,413,34.8734193,-87.6233601
-999,Cloverdale,-999,34.9386964,-87.7714177
-999,Petersville,-999,34.8553645,-87.691695
-999,Underwood,-999,34.8711975,-87.7008616
County Seat,Florence,39319,34.79981,-87.677251
-999,Hillsboro,552,34.639258,-87.1916834
-999,Courtland,609,34.6689794,-87.3094649
-999,Town Creek,1100,34.6812012,-87.4061342
-999,North Courtland,632,34.6848486,-87.30925166
-999,Hatton,261,34.5628707,-87.4153011
-999,Landersville,-999,34.4689841,-87.4008557
-999,Wren,-999,34.4342631,-87.2936304
County Seat,Moulton,3471,34.4812062,-87.2933533
-999,Auburn,53380,32.6098566,-85.4807825
-999,Smiths Station,4926,32.5401393,-85.0985473
-999,Loachapoka,180,32.6043008,-85.5932854
-999,Salem,-999,32.5968028,-85.2385527
-999,Bleecker,-999,32.5823594,-85.1641056
County Seat,Opelika,26477,32.6454116,-85.3782795
-999,Ardmore,1194,34.98869415,-86.84182672
-999,Lester,111,34.9906391,-87.1533469
-999,Mooresville,53,34.628425,-86.8802819
-999,Elkmont,434,34.9289743,-86.9738959
-999,Tanner,-999,34.7314787,-86.9705632
-999,Thach,-999,34.9198083,-86.8927821
County Seat,Athens,21897,34.8028661,-86.9716741
-999,Benton,49,32.3068054,-86.8177608
-999,Lowndesboro,115,32.2751399,-86.6113658
-999,Mosses,1029,32.1745869,-86.6719225
-999,Fort Deposit,1344,31.9845929,-86.5785856
-999,Gordonville,326,32.151993,-86.715443
-999,White Hall,858,32.3270827,-86.7119247
-999,Calhoun,-999,32.0501467,-86.5449739
-999,Letohatchee,-999,32.129589,-86.4858058
-999,Manack,-999,32.3284723,-86.5110857
County Seat,Hayneville,932,32.1840315,-86.5802533
-999,Franklin,149,32.4784706,-85.8024562
-999,Notasulga,965,32.5606908,-85.6724538
-999,Shorter,474,32.3948615,-85.916902
-999,Fort Davis,-999,32.2432014,-85.709673
-999,Hardaway,-999,32.2865322,-85.8488433
-999,Society Hill,-999,32.4265296,-85.4452245
-999,Milstead,-999,32.4426379,-85.8974579
County Seat,Tuskegee,9865,32.4240286,-85.6916195
-999,Harvest,5281,34.8556441,-86.7508323
-999,Hazel Green,3630,34.9323102,-86.5719384
-999,Meridianville,6021,34.8514782,-86.5722154
-999,Moores Mill,5682,34.8439785,-86.5183246
-999,New Market,1597,34.9100883,-86.4277677
-999,New Hope,2810,34.5370339,-86.3944307
-999,Madison,42938,34.6992579,-86.7483318
-999,Gurley,801,34.7017558,-86.3758201
-999,Triana,496,34.5862032,-86.7333314
-999,Owens Cross Roads,1521,34.5881461,-86.4588768
-999,Plevna,-999,34.9617545,-86.4166569
-999,Chase,-999,34.7834237,-86.5466583
-999,Normal,-999,34.7889792,-86.5719369
County Seat,Huntsville,180105,34.7303688,-86.5861037
-999,Demopolis,7483,32.5176361,-87.836402
-999,Myrtlewood,130,32.2504214,-87.9497371
-999,Dayton,52,32.3509732,-87.6419503
-999,Faunsdale,98,32.4598585,-87.5938938
-999,Sweet Water,258,32.0973707,-87.8675103
-999,Thomaston,417,32.2665312,-87.6252826
-999,Providence,223,32.3418079,-87.7805662
-999,Nanafalia,94,32.1129257,-87.9880691
-999,Putnam,193,32.0226505,-88.0314021
-999,Flatwood,-999,32.1493111,-87.5230557
-999,Miller,-999,32.1565357,-87.7855646
-999,Dixons Mills,-999,32.0582052,-87.7875077
County Seat,Linden,2123,32.3062535,-87.7980665
-999,Guin,2376,33.9656594,-87.9147494
-999,Bear Creek,1070,34.2748197,-87.7005833
-999,Brilliant,900,34.0253797,-87.7583574
-999,Winfield,4717,33.928993,-87.8172457
-999,Glen Allen,510,33.9151043,-87.7416876
-999,Gu-Win,176,33.960937,-87.8805817
-999,Hackleburg,1516,34.27732,-87.8286423
-999,Twin,399,34.00557,-87.85659
-999,Bexar,-999,34.1909357,-88.1472612
-999,Weston,-999,34.1598237,-88.0319788
County Seat,Hamilton,6885,34.1423235,-87.9886438
-999,Albertville,21160,34.2675937,-86.2088669
-999,Arab,8050,34.3181497,-86.4958219
-999,Boaz,9551,34.2006503,-86.1663655
-999,Douglas,744,34.1737065,-86.3235926
-999,Grant,896,34.5286985,-86.2533163
-999,Union Grove,77,34.4017589,-86.4491538
County Seat,Guntersville,8197,34.3581473,-86.2947041
-999,Grand Bay,3672,30.4763084,-88.3422303
-999,Theodore,6130,30.5476941,-88.1752796
-999,Tillmans Corner,17398,30.5901929,-88.1708352
-999,Bayou La Batre,2558,30.403516,-88.248522
-999,Chickasaw,6106,30.7637991,-88.0747222
-999,Citronelle,3905,31.0907338,-88.2280622
-999,Creola,1926,30.8918509,-88.0397213
-999,Prichard,22659,30.7387998,-88.0788889
-999,Saraland,13405,30.820742,-88.0705556
-999,Satsuma,6168,30.853241,-88.0561106
-999,Mount Vernon,1574,31.0851775,-88.0133325
-999,Dauphin Island,1238,30.2554811,-88.1097217
-999,Axis,757,30.9299052,-88.0272209
-999,Bucks,32,31.0104583,-88.0241655
-999,Chunchula,210,30.9218505,-88.2005598
-999,Gulfcrest,161,30.9954598,-88.2375056
-999,Movico,305,31.0646228,-88.025555
-999,Bellefontaine,608,30.4935286,-88.1036099
-999,Chastang,-999,31.0376794,-88.0233324
-999,Heron Bay,-999,30.3546444,-88.1302777
-999,Wilmer,-999,30.823243,-88.3614002
-999,Semmes,-999,30.7782432,-88.2591726
County Seat,Mobile,195111,30.6943566,-88.0430541
-999,Beatrice,301,31.7334888,-87.2047083
-999,Excel,723,31.4279433,-87.3413731
-999,Frisco City,1309,31.4334985,-87.401375
-999,Vredenburgh,312,31.8284857,-87.3216563
-999,Megargel,62,31.3798894,-87.4283194
-999,Peterman,89,31.5846048,-87.259429
-999,Uriah,294,31.3051702,-87.5022096
-999,Burnt Corn,-999,31.5534949,-87.1602592
-999,Claiborne,-999,31.5401611,-87.5155464
-999,Chrysler,-999,31.3051699,-87.7011037
-999,Hybart,-999,31.8265412,-87.3819355
-999,Tunnel Springs,-999,31.6426585,-87.2399851
County Seat,Monroeville,6519,31.5279399,-87.3247077
-999,Pike Road,5406,32.2843084,-86.1030169
-999,Cecil,-999,32.3026416,-86.0085694
-999,Grady,-999,31.994872,-86.2010733
-999,Snowdoun,-999,32.2415309,-86.2963562
-999,Sprague,-999,32.132923,-86.2699658
-999,Hunter,-999,32.3956931,-86.3955275
-999,Madison,-999,32.4237482,-86.2263563
-999,Pine Level,-999,32.0679268,-86.0596795
-999,Ramer,-999,32.0504258,-86.2213524
State Capital County Seat,Montgomery,205764,32.3668052,-86.2999689
-999,Hartselle,14255,34.4434282,-86.9352842
-999,Eva,519,34.3323178,-86.758888
-999,Falkville,1279,34.3684295,-86.908616
-999,Trinity,2095,34.6067588,-87.0883459
-999,Priceville,2658,34.5250932,-86.8947271
-999,Somerville,724,34.4731491,-86.798612
-999,Morgan City,-999,34.4720365,-86.5697136
-999,Moulton Heights,-999,34.5973145,-87.0144541
-999,Flint City,-999,34.5231491,-86.9702859
County Seat,Decatur,55683,34.6059254,-86.9833417
-999,Uniontown,1775,32.4495804,-87.5141688
-999,Suttle,-999,32.5362445,-87.1797169
-999,Heiberger,-999,32.7581843,-87.2866658
-999,Sprott,-999,32.676797,-87.2213858
County Seat,Marion,3686,32.6323536,-87.3191655
-999,Aliceville,2486,33.1295681,-88.1514166
-999,Memphis,29,33.1365136,-88.2975341
-999,Ethelsville,81,33.4156743,-88.2166992
-999,Gordo,1750,33.3201178,-87.9027962
-999,Pickensville,608,33.227345,-88.2664225
-999,Reform,1702,33.378451,-88.0153008
-999,Macedonia,292,33.3915082,-88.2333664
-999,Cochrane,-999,33.0654037,-88.2511431
County Seat,Carrollton,1019,33.2617871,-88.0950263
-999,Brundidge,2076,31.7201615,-85.8160567
-999,Banks,179,31.8151585,-85.8430034
-999,Goshen,266,31.7229352,-86.1182882
-999,Ansley,-999,31.8862644,-86.1157906
-999,Linwood,-999,31.9268218,-85.8641166
-999,Orion,-999,31.9587639,-86.0055095
-999,Shady Grove,-999,31.9095967,-86.1624595
-999,Spring Hill,-999,31.6909931,-85.9605043
County Seat,Troy,18033,31.8087678,-85.969951
-999,Rock Mills,600,33.1598425,-85.287446
-999,Roanoke,6074,33.1512313,-85.3721708
-999,Wadley,751,33.1215089,-85.5663432
-999,Woodland,184,33.3742812,-85.399673
-999,Graham,211,33.4576125,-85.3207827
-999,Malone,-999,33.1987291,-85.5841219
-999,Morrison Crossroads,219,33.4265015,-85.4932871
-999,Tennant,-999,33.2681726,-85.4568962
County Seat,Wedowee,823,33.3090047,-85.484675
-999,Ladonia,3142,32.4681977,-85.0791016
-999,Hurtsboro,553,32.2418146,-85.4163327
-999,Crawford,-999,32.4568081,-85.1896611
-999,Fort Mitchell,-999,32.341536,-85.0215983
-999,Glenville,-999,32.1287646,-85.1768793
-999,Hatchechubbee,-999,32.2707034,-85.2757733
-999,Pittsview,-999,32.1882071,-85.1632685
-999,Seale,-999,32.2973697,-85.1688255
County Seat,Phenix City,32822,32.4709761,-85.0007653
-999,Moody,11726,33.5909365,-86.4908168
-999,Springville,4080,33.7750997,-86.4716512
-999,Margaret,4428,33.6862124,-86.4749838
-999,Steele,1043,33.9398201,-86.2016435
-999,Odenville,3585,33.6773237,-86.3966481
-999,Ragland,1639,33.7445442,-86.1558079
-999,Riverside,2208,33.6062145,-86.2044198
-999,Wattsville,-999,33.6814904,-86.2797002
-999,Branchville,-999,33.7,-86.4
County Seat,Ashville,2212,33.8370433,-86.2544223
County Seat,Pell City,12695,33.5862149,-86.2860888
-999,Alabaster,30352,33.2442813,-86.8163773
-999,Calera,11620,33.1028965,-86.7535975
-999,Chelsea,10183,33.3401108,-86.6302625
-999,Montevallo,6323,33.1006746,-86.8641558
-999,Pelham,21352,33.2856687,-86.8099885
-999,Helena,16793,33.296224,-86.8436004
-999,Indian Springs Village,2363,33.3553882,-86.7544321
-999,Harpersville,1637,33.3439995,-86.4380357
-999,Vincent,1988,33.3845537,-86.4119241
-999,Westover,1275,33.3495548,-86.5358159
-999,Wilsonville,1827,33.234281,-86.4835916
-999,Wilton,687,33.0787308,-86.8816562
-999,Brantleyville,884,33.2159489,-86.8749896
-999,Dunnavant,981,33.49412431,-86.54443201
-999,Shelby,1044,33.110396,-86.584149
-999,Sterrett,712,33.448718,-86.479982
-999,Vandiver,1135,33.4706617,-86.5133163
-999,Maylene,-999,33.2034492,-86.861656
-999,Saginaw,-999,33.2162265,-86.7919321
-999,Inverness,-999,33.4070529,-86.7110981
County Seat,Columbiana,4197,33.1781718,-86.6072054
-999,York,2538,32.4862491,-88.2964183
-999,Cuba,346,32.4281952,-88.3764211
-999,Emelle,53,32.7292998,-88.3144755
-999,Epes,192,32.6904114,-88.1261339
-999,Gainesville,208,32.820964,-88.158914
-999,Geiger,170,32.8681857,-88.3050321
-999,Bellamy,543,32.4490275,-88.1336339
-999,Panola,144,32.9506839,-88.2689206
-999,Ward,-999,32.3620845,-88.2780833
-999,Lilita,-999,32.483749,-88.1283561
County Seat,Livingston,3485,32.5843025,-88.1872475
-999,Childersburg,5175,33.2781686,-86.3549774
-999,Lincoln,6266,33.6131588,-86.1183061
-999,Bon Air,116,33.2637246,-86.3355323
-999,Sylacauga,12749,33.1731716,-86.2516406
-999,Talladega Springs,166,33.1215065,-86.4433121
-999,Waldo,283,33.3803879,-86.0269133
-999,Oak Grove,528,33.1917822,-86.2994197
-999,Munford,1292,33.5298282,-85.9508006
-999,Fayetteville,1284,33.1456725,-86.4058112
-999,Sycamore,-999,33.2512251,-86.2024731
-999,Winterboro,-999,33.3215007,-86.1969178
-999,Chandler Springs,-999,33.3306673,-85.9983012
-999,Curry,-999,33.4864957,-86.0171912
-999,Ironaton,-999,33.4267757,-85.9710785
-999,Jenifer,-999,33.5492723,-85.9363559
-999,Overbrook,-999,33.1217842,-86.1983056
-999,Gantts Quarry,-999,33.14845,-86.2894192
County Seat,Talladega,15676,33.4359416,-86.1058048
-999,Alexander City,14875,32.944012,-85.9538532
-999,Camp Hill,1014,32.8004059,-85.6535659
-999,Jacksons' Gap,828,32.8862364,-85.8116265
-999,Daviston,214,33.0528992,-85.6396783
-999,Goldville,55,33.0837311,-85.7838494
-999,New Site,773,33.0373435,-85.7741266
-999,Hackneyville,347,33.0603978,-85.9330202
-999,Our Town,641,32.8281819,-85.9619077
-999,Reeltown,766,32.6037445,-85.8052351
County Seat,Dadeville,3230,32.831238,-85.7635692
-999,Holt,3638,33.2340066,-87.4844489
-999,Northport,23330,33.229007,-87.5772293
-999,Brookwood,1828,33.2556719,-87.3208336
-999,Lake View,1943,33.2806703,-87.1374959
-999,Coaling,1657,33.1590078,-87.340834
-999,Coker,979,33.2459512,-87.6877882
-999,Vance,1529,33.1742847,-87.2336092
-999,Abernant,-999,33.2903926,-87.198053
-999,Elrod,-999,33.2562293,-87.7922362
-999,Peterson,-999,33.2326174,-87.423614
-999,Fosters,-999,33.0948441,-87.6858428
-999,Samantha,-999,33.422337,-87.6052856
-999,Caffee Junction,-999,33.2453935,-87.1377736
-999,Moores Bridge,-999,33.4487259,-87.7936258
-999,Duncanville,-999,33.0617885,-87.4422252
-999,Cottondale,-999,33.189563,-87.4516703
County Seat,Tuscaloosa,90468,33.2098407,-87.5691735
-999,Carbon Hill,2021,33.8917742,-87.5261236
-999,Cordova,2095,33.7598291,-87.1833349
-999,Dora,2025,33.728717,-87.0902772
-999,Sumiton,2520,33.7556606,-87.0499992
-999,Kansas,226,33.9017737,-87.5519582
-999,Eldridge,130,33.9228835,-87.6172389
-999,Nauvoo,221,33.9895503,-87.4889033
-999,Oakman,789,33.7134432,-87.3886157
-999,Parrish,982,33.7306642,-87.2844473
-999,Sipsey,437,33.8248272,-87.0861125
-999,Gorgas,-999,33.649275,-87.2080559
County Seat,Jasper,14352,33.8312185,-87.2775053
-999,McIntosh,238,31.2662818,-88.0313903
-999,Millry,546,31.6340496,-88.3133487
-999,Calvert,277,31.1551748,-88.0099997
-999,Deer Park,188,31.2168416,-88.317234
-999,Fairford,186,31.1682301,-88.0641685
-999,Fruitdale,185,31.3426719,-88.4077946
-999,Hobson,126,31.4723873,-88.1533407
-999,Leroy,911,31.5046086,-87.9847237
-999,Malcolm,187,31.1912845,-88.0074999
-999,Saint Stephens,495,31.5404411,-88.0552823
-999,Tibbie,41,31.3621128,-88.2486215
-999,Vinegar Bend,192,31.263785,-88.3447354
-999,Sims Chapel,153,31.2196171,-88.1486166
-999,Wagarville,-999,31.44251014,-88.03069046
-999,Yarbo,-999,31.5437741,-88.2777907
-999,Seaboard,-999,31.3212806,-88.188619
-999,Yellow Pine,-999,31.4057249,-88.429741
-999,Frankville,-999,31.6465492,-88.1475089
County Seat,Chatom,1288,31.4651653,-88.2544557
-999,Yellow Bluff,188,31.9676491,-87.4680519
-999,Oak Hill,26,31.9209828,-87.0827629
-999,Pine Apple,132,31.872651,-86.9910942
-999,Pine Hill,975,31.9795943,-87.5880561
-999,Boykin,275,32.0779234,-87.28138
-999,Catherine,22,32.1845875,-87.469443
-999,Lamison,-999,32.1212569,-87.5666681
-999,McWilliams,-999,31.8309858,-87.0938737
-999,Millers Ferry,-999,32.0995897,-87.3674944
-999,Sunny South,-999,31.9648729,-87.6400017
-999,Alberta,-999,32.232086,-87.4099974
-999,Kimbrough,-999,32.0334816,-87.5652783
-999,Snow Hill,-999,32.0045909,-87.0072065
County Seat,Camden,2020,31.9909813,-87.2905456
-999,Haleyville,4173,34.226488,-87.6214133
-999,Addison,758,34.2023243,-87.1814012
-999,Arley,357,34.078993,-87.2122325
-999,Lynn,659,34.0470483,-87.54974
-999,Natural Bridge,37,34.0934355,-87.601965
-999,Grayson,-999,34.2803784,-87.319462
County Seat,Double Springs,1083,34.1464916,-87.4022386
-999,Tichnor,-999,34.1403791,-91.2706738
-999,Bayou Meto,-999,34.2237096,-91.5212352
-999,Casscoe,-999,34.5256534,-91.3259569
-999,Gillett,691,34.1173227,-91.3765094
-999,DeWitt,3292,34.29296135,-91.33794916
-999,Humphrey,557,34.4220409,-91.7062418
-999,Almyra,283,34.4062094,-91.4095682
-999,Saint Charles,230,34.3717673,-91.1365062
-999,Crocketts Bluff,-999,34.4439881,-91.2201202
-999,Van,-999,34.326767,-91.2342858
County Seat,Stuttgart,9326,34.5003748,-91.5526281
-999,Boydell,-999,33.3656717,-91.4912323
-999,West Crossett,1256,33.1409551,-91.9940214
-999,North Crossett,3119,33.1656769,-91.9415204
-999,Crossett,5507,33.1281779,-91.9612427
-999,Montrose,354,33.2976178,-91.4937317
-999,Parkdale,277,33.1215116,-91.5456761
-999,Portland,430,33.2378972,-91.5115095
-999,Wilmot,550,33.0573469,-91.5734539
-999,Fountain Hill,175,33.3578937,-91.8504084
-999,Mist,-999,33.2740077,-91.6915149
-999,White,-999,33.0140144,-91.9956868
County Seat,Hamburg,2857,33.2281757,-91.7976285
-999,Clarkridge,-999,36.4778428,-92.3512705
-999,Gassville,2078,36.2831238,-92.4940505
-999,Briarcliff,236,36.2750677,-92.2862677
-999,Cotter,970,36.2711798,-92.5354402
-999,Norfork,511,36.2095132,-92.284323
-999,Lakeview,741,36.3686783,-92.5454407
-999,Big Flat,105,36.005073,-92.4043257
-999,Salesville,450,36.2453458,-92.2651559
-999,Midway,1084,36.3853444,-92.4618277
-999,Henderson,-999,36.3806216,-92.2276564
-999,Gamaliel,-999,36.4567317,-92.2332128
-999,Arkana,-999,36.2384016,-92.316546
County Seat,Mountain Home,12448,36.3353449,-92.3851593
-999,Larue,-999,36.3417401,-93.9460319
-999,War Eagle,-999,36.2678523,-93.9410312
-999,Gentry,3158,36.2675793,-94.4846602
-999,Gravette,2325,36.4220207,-94.4535484
-999,Bethel Heights,2372,36.2142438,-94.1293698
-999,Cave Springs,1729,36.2634109,-94.2318728
-999,Centerton,9515,36.359799,-94.2852085
-999,Decatur,1699,36.3359112,-94.4607707
-999,Pea Ridge,4794,36.4539626,-94.1152041
-999,Rogers,55964,36.3320197,-94.1185366
-999,Little Flock,2585,36.3859082,-94.1352041
-999,Lowell,7327,36.2553543,-94.1307587
-999,Avoca,488,36.4020182,-94.0707581
-999,Bella Vista,26461,36.42952,-94.2315959
-999,Siloam Springs,15039,36.1881365,-94.5404962
-999,Sulphur Springs,511,36.4834084,-94.4585488
-999,Highfill,583,36.2614675,-94.3577108
-999,Garfield,502,36.4484053,-93.9740892
-999,Gateway,405,36.490349,-93.9318661
-999,Springtown,87,36.2609124,-94.423269
-999,Cherokee City,72,36.2984132,-94.5777195
-999,Hiwasse,497,36.4317426,-94.3338218
-999,Maysville,130,36.403689,-94.6018877
County Seat,Bentonville,35301,36.3728538,-94.2088172
-999,Diamond City,782,36.464511,-92.9201731
-999,Alpena,392,36.2947919,-93.2921262
-999,Bellefonte,454,36.2009054,-93.048508
-999,Bergman,439,36.3161809,-93.0076743
-999,Lead Hill,271,36.4197897,-92.9148948
-999,Everton,133,36.1553504,-92.9068374
-999,Valley Springs,183,36.1575729,-92.9929508
-999,Zinc,103,36.285348,-92.9143383
-999,Omaha,169,36.4522883,-93.188513
-999,South Lead Hill,102,36.3947902,-92.9107279
-999,Lowry,-999,36.4717331,-93.0543432
-999,Olvey,-999,36.1909055,-92.9660058
County Seat,Harrison,12943,36.2297936,-93.1076765
-999,Ingalls,-999,33.3834493,-92.1509721
-999,Banks,124,33.5748327,-92.2690344
-999,Hermitage,830,33.4465028,-92.1740294
-999,Jersey,-999,33.4284495,-92.314312
-999,Vick,-999,33.3287285,-92.1056925
-999,Moro Bay,-999,33.3065107,-92.3504217
County Seat,Warren,6003,33.6126086,-92.0645831
-999,Thornton,407,33.7789952,-92.4918221
-999,Harrell,254,33.5101142,-92.3987619
-999,Tinsman,54,33.629832,-92.3551494
-999,Woodberry,-999,33.5823353,-92.5159891
County Seat,Hampton,1324,33.537892,-92.4698762
-999,Osage,-999,36.1825728,-93.4046288
-999,Green Forest,2761,36.3353472,-93.4360189
-999,Beaver,100,36.4736816,-93.7674166
-999,Blue Eye,30,36.49696339,-93.39585193
-999,Oak Grove,369,36.4637514,-93.4303218
-999,Busch,-999,36.4642377,-93.8307518
-999,Urbanette,-999,36.4197904,-93.5335212
-999,Oakgrove,-999,36.4561777,-93.4365744
-999,Rule,-999,36.2778485,-93.4599086
County Seat,Eureka Springs,2073,36.4011825,-93.7379711
County Seat,Berryville,5356,36.364792,-93.5679667
-999,Chicot,-999,33.2056751,-91.2865023
-999,Eudora,2269,33.109566,-91.2620567
-999,Dermott,2316,33.52539,-91.4359538
-999,Readland,-999,33.0656783,-91.213444
-999,Jennie,-999,33.2562294,-91.2862247
County Seat,Lake Village,2575,33.3287279,-91.2817806
-999,Beirne,-999,33.8887161,-93.2040588
-999,Amity,723,34.2648201,-93.4610173
-999,Gurdon,2212,33.9209365,-93.1540591
-999,Caddo Valley,635,34.1820388,-93.0710073
-999,Gum Springs,120,34.06732,-93.0918391
-999,Whelen Springs,92,33.8309394,-93.1262793
-999,Okolona,147,33.9973256,-93.3379532
-999,Alpine,1849,34.2289863,-93.3790695
-999,Curtis,-999,33.9978777,-93.105727
County Seat,Arkadelphia,10714,34.1209292,-93.053784
-999,Greenway,209,36.3411728,-90.2203771
-999,Peach Orchard,135,36.2786754,-90.6628897
-999,Pollard,222,36.4308933,-90.2684348
-999,Rector,1977,36.2631185,-90.2926008
-999,Knobel,287,36.320063,-90.6020551
-999,Saint Francis,250,36.4533933,-90.1453751
-999,McDougal,186,36.4400598,-90.3914945
-999,Datto,100,36.3917293,-90.7309496
-999,Success,149,36.4545056,-90.721506
-999,Nimmons,69,36.30673,-90.0945396
-999,Moark,-999,36.4833923,-90.5251108
-999,Boydsville,-999,36.3342285,-90.3837152
County Seat,Corning,3377,36.4078388,-90.5798336
County Seat,Piggott,3849,36.382839,-90.1906542
-999,Wolf Bayou,-999,35.6547993,-91.9107016
-999,Greers Ferry,891,35.5770219,-92.1773746
-999,Quitman,762,35.3842471,-92.2157075
-999,Higden,120,35.5734108,-92.2032085
-999,Concord,244,35.6636886,-91.8476443
-999,Tumbling Shoals,978,35.5420227,-91.9673696
-999,Prim,-999,35.6939653,-92.1084844
-999,Banner,-999,35.6417446,-91.8315327
-999,Hiram,-999,35.4692466,-91.867922
-999,Ida,-999,35.5881335,-91.9279242
-999,Almond,-999,35.6959109,-91.7984762
-999,Pearson,-999,35.4406351,-92.1279283
County Seat,Heber Springs,7165,35.4914677,-92.03126
-999,Kingsland,447,33.8584369,-92.2940372
-999,New Edinburg,127,33.7573274,-92.2384789
-999,Rye,146,33.7462165,-91.997916
-999,Staves,116,34.0392669,-92.2773711
-999,Woodlawn,209,33.9667358,-92.0452384
-999,Kedron,-999,34.0445443,-92.1404219
County Seat,Rison,1344,33.9584347,-92.1901454
-999,McNeil,516,33.3479029,-93.2098897
-999,Taylor,566,33.1004108,-93.4610066
-999,Waldo,1372,33.351514,-93.2957251
-999,Emerson,368,33.0976347,-93.1929441
-999,Atlanta,131,33.1187457,-93.0526635
County Seat,Magnolia,11577,33.2670725,-93.2393341
-999,Cleveland,-999,35.4214685,-92.7096079
-999,Blackwell,-999,35.2223051,-92.8412781
-999,Oppelo,781,35.1011965,-92.7676658
-999,Plumerville,826,35.1600836,-92.6407177
-999,Menifee,302,35.1484169,-92.5540487
-999,Center Ridge,388,35.3739685,-92.5629375
-999,Springfield,-999,35.2675809,-92.5576595
-999,Hattieville,-999,35.2875814,-92.7868322
-999,Jerusalem,-999,35.4048027,-92.8168331
County Seat,Morrilton,6767,35.1509173,-92.7440538
-999,Bay,1801,35.7422991,-90.5623305
-999,Bono,2131,35.9086842,-90.8026153
-999,Caraway,1279,35.7581319,-90.3223223
-999,Monette,1501,35.8906286,-90.3442678
-999,Black Oak,262,35.8389632,-90.3681575
-999,Brookland,1642,35.900073,-90.5820534
-999,Cash,342,35.7942424,-90.9365081
-999,Egypt,112,35.8681298,-90.9456751
-999,Dryden,-999,35.8342416,-90.9090073
-999,Otwell,-999,35.7259105,-90.837894
County Seat,Jonesboro,67263,35.8422967,-90.7042791
County Seat,Lake City,2082,35.816186,-90.434271
-999,Lee Creek,-999,35.6814731,-94.3493785
-999,Uniontown,-999,35.5845311,-94.4441038
-999,Alma,5419,35.4778653,-94.2218752
-999,Dyer,876,35.492309,-94.1377058
-999,Cedarville,1394,35.5698087,-94.3668792
-999,Mountainburg,631,35.6356396,-94.167428
-999,Mulberry,1655,35.5006417,-94.0515919
-999,Kibler,961,35.4303664,-94.231598
-999,Chester,159,35.6809165,-94.1752057
-999,Rudy,61,35.5278646,-94.2707653
-999,Rena,-999,35.4870326,-94.3577123
-999,Natural Dam,-999,35.6486962,-94.3946578
County Seat,Van Buren,22791,35.436756,-94.348268
-999,Earle,2414,35.2750871,-90.4667694
-999,Gilmore,188,35.4117514,-90.2784305
-999,Clarkedale,371,35.3092539,-90.2362069
-999,Anthonyville,161,35.0395377,-90.3409315
-999,Turrell,615,35.3798077,-90.2578743
-999,West Memphis,26245,35.1464797,-90.1845388
-999,Horseshoe Lake,292,34.9134297,-90.3073195
-999,Jennette,115,35.1664788,-90.4045448
-999,Jericho,119,35.285921,-90.22704
-999,Crawfordsville,479,35.2250889,-90.3250983
-999,Edmondson,427,35.1064808,-90.3103753
-999,Sunset,198,35.2217558,-90.2056505
-999,Chatfield,-999,35.005927,-90.3973217
County Seat,Marion,12345,35.2145337,-90.1964836
-999,Fair Oaks,-999,35.2434208,-91.0312313
-999,Tilton,-999,35.3173081,-91.0140088
-999,Vanndale,-999,35.3134199,-90.7740019
-999,Cherry Valley,651,35.4020287,-90.7531682
-999,Parkin,1105,35.26848659,-90.56068214
-999,Hickory Ridge,272,35.3973063,-90.9965085
County Seat,Wynne,8367,35.224533,-90.7867798
-999,Holly Springs,-999,33.8153834,-92.7096054
-999,Ouachita,-999,33.8523265,-92.8293307
-999,Carthage,343,34.0750994,-92.5554359
-999,Sparkman,427,33.9167689,-92.8482207
-999,Bunn,-999,34.0014898,-92.4954338
-999,Dalark,-999,34.0373207,-92.886001
-999,Willow,-999,34.1337085,-92.7462753
-999,Manning,-999,34.0212107,-92.7929425
-999,Fairview,-999,33.9731559,-92.8796111
-999,Ivan,-999,33.9117696,-92.4245977
-999,Princeton,-999,33.9817678,-92.624604
-999,Ramsey,-999,33.8742707,-92.5537684
County Seat,Fordyce,4300,33.8137161,-92.4129303
-999,Pickens,-999,33.8456599,-91.4817897
-999,Snow Lake,-999,34.0609387,-91.0231657
-999,Dumas,4706,33.8870477,-91.4917899
-999,Mitchellville,360,33.9056584,-91.4990123
-999,McGehee,4219,33.6289986,-91.3995641
-999,Watson,211,33.8951043,-91.2562273
-999,Reed,141,33.7020522,-91.4431772
-999,Kelso,-999,33.7976062,-91.2706717
-999,Yancopin,-999,33.9406595,-91.2187264
-999,Halley,-999,33.5356678,-91.3248387
-999,Rohwer,-999,33.7609402,-91.2756716
County Seat,Arkansas City,366,33.6087222,-91.2067794
-999,Collins,-999,33.5315005,-91.5654022
-999,Tillar,225,33.7123297,-91.4528998
-999,Wilmar,511,33.6289971,-91.9315237
-999,Jerome,39,33.3995596,-91.4701208
-999,Winchester,167,33.7745503,-91.4745673
-999,College Heights,-999,33.5903872,-91.8006862
-999,Florence,-999,33.7656612,-91.645683
-999,Selma,-999,33.6973297,-91.5676252
-999,Ladelle,-999,33.4645572,-91.7937407
County Seat,Monticello,9467,33.6289974,-91.7909639
-999,Greenbrier,4706,35.2339712,-92.387655
-999,Holland,557,35.1714733,-92.2737629
-999,Mayflower,2234,34.9570325,-92.4273785
-999,Vilonia,3815,35.083975,-92.2079277
-999,Mount Vernon,145,35.2264728,-92.1240374
-999,Enola,338,35.195362,-92.2032058
-999,Guy,708,35.3253588,-92.3343208
-999,Twin Groves,335,35.3334136,-92.4221006
-999,Wooster,860,35.2020269,-92.4559902
-999,Cato,-999,34.9284222,-92.2612616
-999,Martinville,-999,35.3250801,-92.4823798
County Seat,Conway,58908,35.0886963,-92.4421011
-999,Cass,-999,35.6875812,-93.8193612
-999,Altus,758,35.4461965,-93.7624172
-999,Branch,367,35.3056457,-93.953535
-999,Wiederkehr Village,38,35.4731405,-93.7646392
-999,Denning,314,35.4292524,-93.7571394
-999,Alix,-999,35.4248078,-93.7304719
-999,Cecil,-999,35.438698,-93.9446447
-999,Webb City,-999,35.4681411,-93.8318635
County Seat,Charleston,2494,35.2970353,-94.0363153
County Seat,Ozark,3684,35.4870295,-93.8276965
-999,Agnos,-999,36.2772888,-91.6915332
-999,Mammoth Spring,977,36.4956181,-91.5406968
-999,Viola,337,36.3967317,-91.9826515
-999,Camp,-999,36.4142312,-91.7348682
-999,Glencoe,-999,36.2942329,-91.7473681
-999,Wild Cherry,-999,36.2639555,-92.0568192
-999,Bexar,-999,36.2867328,-91.9957071
-999,Morriston,-999,36.2658999,-91.7804244
-999,Sturkie,-999,36.4572864,-91.8732049
County Seat,Salem,1635,36.3711763,-91.8226479
-999,Crystal Springs,-999,34.5220352,-93.3360221
-999,Hot Springs Village,12807,34.6720356,-92.9987886
-999,Lake Hamilton,2135,34.4245347,-93.0951795
-999,Piney,4699,34.5031449,-93.126016
-999,Mountain Pine,770,34.5720347,-93.1732401
-999,Lonsdale,94,34.5445356,-92.8082249
-999,Fountain Lake,503,34.572868,-92.9876767
-999,Jessieville,-999,34.7012029,-93.0615688
-999,Meyers,-999,34.4592583,-93.3540764
-999,Mountain Valley,-999,34.6292576,-93.0568463
-999,Oma,-999,34.3962027,-93.2646281
-999,Pearcy,-999,34.4287024,-93.2899078
County Seat,Hot Springs,35193,34.5037004,-93.0551795
-999,Leola,501,34.1695418,-92.5909931
-999,Tull,448,34.4478716,-92.5762718
-999,Poyen,290,34.3242614,-92.6398844
-999,Prattsville,305,34.3148176,-92.5534927
-999,Grapevine,-999,34.1456543,-92.3154285
-999,Belfast,-999,34.4145393,-92.4590455
County Seat,Sheridan,4603,34.3070406,-92.4012654
-999,Stonewall,-999,36.2431198,-90.5523301
-999,Marmaduke,1111,36.1870095,-90.3831586
-999,Lafe,458,36.2042316,-90.5139956
-999,Delaplaine,116,36.2336769,-90.7265024
-999,Oak Grove Heights,889,36.1209004,-90.5106623
-999,Brighton,-999,36.0675684,-90.356213
-999,Gainesville,-999,36.1647882,-90.5106623
-999,Halliday,-999,36.1214559,-90.4342711
County Seat,Paragould,26113,36.0584021,-90.4973286
-999,De Ann,-999,33.7781697,-93.562677
-999,Tokio,-999,34.0034443,-93.7510145
-999,Blevins,315,33.8717784,-93.5771232
-999,Washington,180,33.774005,-93.6826796
-999,McCaskill,96,33.9167782,-93.641569
-999,McNab,68,33.661231,-93.8326838
-999,Fulton,201,33.6145649,-93.8135164
-999,Oakhaven,63,33.7292829,-93.6207337
-999,Ozan,85,33.8478925,-93.7190695
-999,Patmos,64,33.5117873,-93.5662889
-999,Perrytown,272,33.6965047,-93.5371207
-999,Clow,-999,33.8898365,-93.7726819
-999,Bingen,-999,33.9756677,-93.7840712
-999,Sheppard,-999,33.6265084,-93.7221249
-999,Spring Hill,-999,33.5876195,-93.6485124
County Seat,Hope,10095,33.6670616,-93.5915665
-999,Social Hill,-999,34.3320363,-92.9132276
-999,Rockport,755,34.3875923,-92.8254469
-999,Magnet Cove,5,34.4542581,-92.8446148
-999,Midway,389,34.2542589,-92.9635065
-999,Donaldson,301,34.2367597,-92.9235048
-999,Friendship,176,34.2231482,-93.0029519
-999,Perla,241,34.3645376,-92.7715558
-999,Butterfield,-999,34.4273142,-92.8137801
-999,Gifford,-999,34.3756489,-92.7443327
-999,Point Cedar,-999,34.3275938,-93.3074039
-999,Lono,-999,34.2081515,-92.7101637
-999,Bismarck,-999,34.3162035,-93.1707339
County Seat,Malvern,10318,34.3623149,-92.8129463
-999,Umpire,-999,34.2789981,-94.0507527
-999,Dierks,1133,34.1192785,-94.0165816
-999,Mineral Springs,1208,33.875116,-93.9137981
-999,Tollette,240,33.8198393,-93.894353
-999,Saratoga,-999,33.7517855,-93.9026867
-999,Schaal,-999,33.8262286,-93.961022
County Seat,Nashville,4627,33.9456692,-93.847129
-999,Desha,-999,35.7361886,-91.6798619
-999,Cushman,452,35.8728522,-91.7540319
-999,Newark,1176,35.7017444,-91.441522
-999,Magness,202,35.7022998,-91.4804119
-999,Moorefield,137,35.76841,-91.5704147
-999,Sulphur Rock,456,35.751188,-91.5006905
-999,Oil Trough,260,35.6309121,-91.4604109
-999,Pleasant Plains,349,35.5500796,-91.6262486
-999,Cord,-999,35.81202,-91.3434645
-999,Salado,-999,35.691189,-91.5956928
-999,Bethesda,-999,35.7914651,-91.7884764
-999,Floral,-999,35.5873011,-91.757086
-999,Jamestown,-999,35.6967446,-91.7045847
County Seat,Batesville,10248,35.769799,-91.6409722
-999,Newburg,-999,36.1156249,-91.949872
-999,Violet Hill,-999,36.1536796,-91.8415363
-999,Calico Rock,1545,36.1195143,-92.1359867
-999,Oxford,670,36.2211783,-91.9293165
-999,Horseshoe Bend,2184,36.2292339,-91.7643127
-999,Mount Pleasant,414,35.9617389,-91.7556996
-999,Franklin,198,36.170346,-91.7759792
-999,Guion,86,35.9253507,-91.9407041
-999,Pineville,238,36.1628467,-92.1070974
-999,Zion,-999,36.0803476,-91.7698675
-999,Wideman,-999,36.1864568,-92.0087625
-999,Myron,-999,36.1836792,-91.7056998
-999,Sage,-999,36.0459038,-91.8162573
-999,Boswell,-999,36.040349,-92.0557074
-999,Mount Olive,-999,36.0006278,-92.0929302
County Seat,Melbourne,1848,36.0595148,-91.9084819
-999,Grubbs,386,35.6498009,-91.0740117
-999,Campbell Station,255,35.6684117,-91.24485
-999,Diaz,1318,35.6384123,-91.2651282
-999,Amagon,98,35.5620249,-91.1104012
-999,Beedeville,107,35.4289722,-91.109845
-999,Swifton,798,35.821742,-91.1284584
-999,Tuckerman,1862,35.7306327,-91.1984601
-999,Jacksonport,212,35.6417455,-91.3095737
-999,Tupelo,180,35.3931395,-91.2306816
-999,Weldon,75,35.4453606,-91.2315151
-999,Olyphant,-999,35.5245251,-91.3823526
-999,Auvergne,-999,35.5136926,-91.2306821
-999,Grand Glaise,-999,35.4750816,-91.409853
County Seat,Newport,7879,35.6048018,-91.2817951
-999,Faith,-999,34.1037102,-92.1034763
-999,Jefferson,-999,34.3806516,-92.1640352
-999,Tamo,-999,34.110377,-91.7592972
-999,Altheimer,984,34.3192636,-91.8473565
-999,Redfield,1297,34.4450952,-92.1832028
-999,White Hall,5526,34.2739862,-92.0909766
-999,Wabbaseka,255,34.3609299,-91.795966
-999,Sherrill,84,34.385374,-91.950694
-999,Sulphur Springs,1101,34.1806539,-92.1234774
-999,Cornerstone,-999,34.2303755,-91.7451298
-999,Moscow,-999,34.1464876,-91.7951318
-999,Tucker,-999,34.44454,-91.9545832
County Seat,Pine Bluff,49083,34.2284312,-92.0031955
-999,Oark,-999,35.6895255,-93.5724092
-999,Yale,-999,35.6711924,-93.6507452
-999,Hartman,519,35.4325849,-93.6154676
-999,Coal Hill,1012,35.4373073,-93.6729697
-999,Lamar,1605,35.440639,-93.3879595
-999,Knoxville,731,35.3820285,-93.3643479
-999,Hagarville,129,35.5156375,-93.3249015
-999,Salus,-999,35.7309142,-93.406015
-999,Fort Douglas,-999,35.6842479,-93.2418434
-999,Harmony,-999,35.5481385,-93.5557426
-999,Ozone,-999,35.6411927,-93.4432386
-999,Piney,-999,35.3445288,-93.3254578
County Seat,Clarksville,9178,35.4714724,-93.4665731
-999,Bradley,628,33.0981881,-93.6548984
-999,Buckner,275,33.3584581,-93.4360073
-999,Stamps,1693,33.3654024,-93.4951758
-999,Canfield,-999,33.1829078,-93.6326765
-999,McKamie,-999,33.2684609,-93.4990644
County Seat,Lewisville,1280,33.3584583,-93.5776771
-999,Black Rock,662,36.1084031,-91.0973473
-999,College City,455,36.1253469,-90.9392867
-999,Hoxie,2780,36.0503484,-90.9751205
-999,Alicia,124,35.8931295,-91.0829015
-999,Imboden,677,36.2025683,-91.1745727
-999,Lynn,288,36.0072941,-91.2523521
-999,Minturn,109,35.9745166,-91.0276219
-999,Strawberry,302,35.9675726,-91.3212426
-999,Portia,437,36.0864591,-91.0673461
-999,Powhatan,72,36.0822925,-91.1184589
-999,Ravenden,470,36.2334012,-91.2517978
-999,Sedgwick,152,35.9778495,-90.864006
-999,Smithville,78,36.0803484,-91.3037428
County Seat,Walnut Ridge,4890,36.0684035,-90.9559534
-999,Felton,-999,34.8042631,-90.7962234
-999,Aubrey,170,34.7167646,-90.9003932
-999,Haynes,150,34.8909277,-90.7920565
-999,LaGrange,89,34.655672,-90.7338863
-999,Moro,216,34.7950966,-90.9912295
-999,Rondo,198,34.6592655,-90.8206687
-999,Brickeys,-999,34.8606516,-90.5923277
County Seat,Marianna,4115,34.7737082,-90.7576112
-999,Cornerville,-999,33.8442701,-91.9404144
-999,Palmyra,-999,33.9228795,-91.9304142
-999,Gould,837,33.985101,-91.5609583
-999,Grady,449,34.0800997,-91.7006845
-999,Glendale,-999,33.9628786,-91.9593041
-999,Tarry,-999,34.0759328,-91.8415224
-999,Yorktown,-999,34.0209335,-91.8167994
-999,Tyro,-999,33.8356595,-91.720685
County Seat,Star City,2274,33.9428794,-91.8434668
-999,Alleene,-999,33.7701178,-94.2604778
-999,Arkinda,-999,33.7803931,-94.4688178
-999,Foreman,1011,33.7217833,-94.3968704
-999,Ogden,180,33.5826222,-94.0426902
-999,Wilton,374,33.7412299,-94.1482512
-999,Winthrop,192,33.8317827,-94.3546481
-999,Arden,-999,33.6895629,-94.2857555
-999,Richmond,-999,33.6376201,-94.2074189
County Seat,Ashdown,4723,33.6742867,-94.1313054
-999,Prairie View,-999,35.3345304,-93.5179647
-999,Ratcliff,202,35.3084226,-93.883533
-999,Magazine,847,35.1509249,-93.8068652
-999,Blue Mountain,124,35.1303689,-93.7115846
-999,Scranton,224,35.3611968,-93.535743
-999,Morrison Bluff,64,35.387863,-93.5285202
-999,Caulksville,213,35.3020337,-93.864088
-999,Subiaco,572,35.2928653,-93.6346359
-999,New Blaine,174,35.2895304,-93.4201836
-999,Chismville,-999,35.217314,-93.9404799
-999,Delaware,-999,35.2836963,-93.2987904
-999,Driggs,-999,35.2364785,-93.7724192
County Seat,Booneville,3990,35.140093,-93.9215909
County Seat,Paris,3532,35.2920325,-93.7299173
-999,Scott,72,34.6964808,-92.0962552
-999,Austin,2038,34.9984206,-91.9837552
-999,England,2825,34.5442609,-91.9690285
-999,Cabot,23776,34.974532,-92.0165336
-999,Carlisle,2214,34.7831469,-91.7465235
-999,Humnoke,284,34.5414839,-91.7570774
-999,Allport,115,34.5420393,-91.7840227
-999,Ward,4067,35.0303648,-91.950421
-999,Keo,256,34.6028709,-92.00903
-999,Coy,96,34.5387058,-91.8740255
-999,Butlerville,-999,34.9759215,-91.8334725
County Seat,Lonoke,4245,34.7839795,-91.8998611
-999,Japton,-999,35.9620224,-93.8043601
-999,Witter,-999,35.9375779,-93.6835235
-999,Wesley,-999,36.0273004,-93.9201967
-999,Weathers,-999,35.959522,-93.5204639
-999,Hindsville,61,36.1442426,-93.8621399
-999,Saint Paul,113,35.8242459,-93.7640813
-999,Clifty,-999,36.2372964,-93.7963052
-999,Kingston,-999,36.0506315,-93.5185199
-999,Alabam,-999,36.1525747,-93.6813021
-999,Marble,-999,36.1397966,-93.587411
-999,Pettigrew,-999,35.8178571,-93.6485224
-999,Red Star,-999,35.8667455,-93.5307416
County Seat,Huntsville,2346,36.0861871,-93.7413032
-999,Oakland,-999,36.4608991,-92.5709971
-999,Peel,-999,36.4322891,-92.76878
-999,Flippin,1355,36.2789578,-92.5971082
-999,Bull Shoals,1950,36.383956,-92.5815527
-999,Summit,604,36.2522922,-92.6907213
-999,Pyatt,221,36.2459041,-92.8448916
County Seat,Yellville,1204,36.2261815,-92.6848876
-999,Fouke,859,33.2612392,-93.8854591
-999,Garland,242,33.3629029,-93.7099012
-999,Genoa,-999,33.3837368,-93.909628
-999,Kiblah,-999,33.0515224,-93.8960127
-999,Doddridge,-999,33.0917991,-93.9082356
-999,Mandeville,-999,33.4817907,-93.9640754
County Seat,Texarkana,29919,33.4417915,-94.0376881
-999,Tomato,-999,35.8436871,-89.7411916
-999,Gosnell,3548,35.9597942,-89.9720328
-999,Keiser,759,35.6745227,-90.0998141
-999,Leachville,1993,35.9359051,-90.257876
-999,Luxora,1178,35.7561879,-89.9281419
-999,Manila,3342,35.8800733,-90.1670393
-999,Bassett,173,35.5364705,-90.1267592
-999,Birdsong,41,35.4584169,-90.2625967
-999,Burdette,191,35.8172976,-89.9392535
-999,Wilson,903,35.5681363,-90.0420342
-999,Marie,84,35.6103576,-90.0809244
-999,Dell,223,35.8553519,-90.0417571
-999,Dyess,410,35.5898026,-90.2134287
-999,Etowah,351,35.7289658,-90.2323188
-999,Victoria,37,35.7567431,-90.0559239
-999,Armorel,-999,35.9200742,-89.7981381
-999,Grider,-999,35.6386903,-89.9806435
-999,Joiner,576,35.5078601,-90.1470374
County Seat,Blytheville,15620,35.9272953,-89.9189754
County Seat,Osceola,7757,35.7050778,-89.969532
-999,Blackton,-999,34.6675977,-91.1042873
-999,Brinkley,3188,34.8878719,-91.1945688
-999,Holly Grove,602,34.5959311,-91.1998441
-999,Fargo,98,34.9514821,-91.1801241
-999,Roe,114,34.6334296,-91.3851265
-999,Monroe,-999,34.7348192,-91.1045658
-999,Smale,-999,34.710375,-91.10401
County Seat,Clarendon,1664,34.6931517,-91.313737
-999,Caddo Gap,-999,34.400099,-93.6193563
-999,Black Springs,99,34.4612118,-93.7126919
-999,Norman,378,34.4550997,-93.6801914
-999,Oden,232,34.6189884,-93.7768637
-999,Sims,-999,34.659264,-93.6910292
-999,Story,-999,34.6931505,-93.5176917
-999,Hopper,-999,34.358713,-93.6888009
County Seat,Mount Ida,1076,34.5567637,-93.6340815
-999,Laneburg,-999,33.6851141,-93.3468373
-999,Emmet,518,33.7262253,-93.4704521
-999,Bluff City,124,33.7184436,-93.1340555
-999,Bodcaw,138,33.5584518,-93.4071178
-999,Cale,79,33.6262263,-93.2404457
-999,Willisville,152,33.5170638,-93.2982259
-999,Rosston,261,33.5926167,-93.276558
-999,Waterloo,-999,33.5431739,-93.2460019
-999,Falcon,-999,33.4645658,-93.4135071
County Seat,Prescott,3296,33.8026107,-93.3810057
-999,Parthenon,-999,35.9531336,-93.2421224
-999,Western Grove,384,36.1009071,-92.9537828
-999,Swain,-999,35.8492462,-93.3399024
-999,Ponca,-999,36.0242433,-93.3646264
-999,Compton,-999,36.0967415,-93.3026808
-999,Ben Hur,-999,35.730357,-92.9729501
-999,Deer,-999,35.8267464,-93.2093434
-999,Limestone,-999,35.7839695,-93.2835114
-999,Lurton,-999,35.7714684,-93.0776744
-999,Mount Judea,-999,35.9214662,-93.060174
-999,Murray,-999,35.9300783,-93.3118466
County Seat,Jasper,466,36.0081324,-93.1865659
-999,Buena Vista,-999,33.48734,-92.9551644
-999,Bearden,966,33.7245526,-92.6157139
-999,Chidester,287,33.7023315,-93.0204437
-999,Stephens,891,33.4112328,-93.0696101
-999,Louann,164,33.3909555,-92.7918283
-999,East Camden,931,33.6078907,-92.7401611
-999,Reader,66,33.752053,-93.1051664
-999,Amy,-999,33.7320525,-92.8154405
-999,Eagle Mills,-999,33.68261,-92.7046048
-999,Elliott,-999,33.4573413,-92.8279401
-999,Kent,-999,33.6256678,-92.813218
-999,Ogemaw,-999,33.4626192,-93.0251653
County Seat,Camden,12183,33.5845582,-92.8343294
-999,Adona,209,35.0381433,-92.8979475
-999,Bigelow,315,35.0011986,-92.6298847
-999,Houston,173,35.0334202,-92.6946086
-999,Casa,171,35.0228667,-93.047674
-999,Fourche,62,34.9939765,-92.6209955
-999,Perry,270,35.0475869,-92.7940557
-999,Aplin,-999,34.9739783,-92.9787838
-999,Hollis,-999,34.8745357,-93.1104566
County Seat,Perryville,1460,35.0048102,-92.8026673
-999,Oneida,-999,34.4614906,-90.7831667
-999,Poplar Grove,-999,34.547878,-90.8531693
-999,Elaine,636,34.3084371,-90.8520531
-999,Lake View,443,34.41676276,-90.80095801
-999,Marvell,1186,34.5556555,-90.9128928
-999,Lexa,286,34.5978776,-90.7523336
-999,Cypert,-999,34.4901005,-90.9562265
-999,Barton,-999,34.5476004,-90.7681675
-999,West Helena,-999,34.5506573,-90.6417741
-999,Lambrook,-999,34.3356581,-90.9676124
-999,Lundell,-999,34.1920489,-90.962332
-999,Postelle,-999,34.5700993,-91.0228954
-999,Wabash,-999,34.3887138,-90.8287213
County Seat,Helena,-999,34.5295471,-90.5917722
-999,Langley,-999,34.3128838,-93.8418588
-999,Newhope,-999,34.2303856,-93.8801911
-999,Glenwood,2228,34.3267653,-93.5507428
-999,Delight,279,34.0314949,-93.502959
-999,Antoine,117,34.0362152,-93.4207343
-999,Daisy,115,34.237328,-93.7421328
-999,Kirby,786,34.2503806,-93.6412983
-999,Pike City,-999,34.1123272,-93.5751832
-999,Highland,-999,34.0353884,-93.7721273
-999,Nathan,-999,34.1062207,-93.8137974
-999,Rosboro,-999,34.2875983,-93.5085191
County Seat,Murfreesboro,1641,34.0623308,-93.6899049
-999,Deckerville,-999,35.4450838,-90.3050981
-999,Greenfield,-999,35.6323013,-90.712612
-999,Weona,-999,35.5470255,-90.5976081
-999,Whitehall,-999,35.4803601,-90.7356678
-999,Fisher,223,35.4914709,-90.9742858
-999,Lepanto,1893,35.6111909,-90.3298218
-999,Marked Tree,2566,35.5328594,-90.4206578
-999,Trumann,7243,35.6736895,-90.5073285
-999,Tyronza,762,35.4900827,-90.358711
-999,Weiner,716,35.6203571,-90.8984508
-999,Waldenburg,61,35.5653583,-90.9337294
-999,Rivervale,-999,35.6739672,-90.3401003
County Seat,Harrisburg,2288,35.5642472,-90.7167786
-999,Potter,-999,34.553717,-94.3391027
-999,Big Fork,-999,34.4864951,-93.9699217
-999,Grannis,554,34.2406665,-94.3349306
-999,Cove,382,34.4351068,-94.411325
-999,Hatfield,413,34.485662,-94.378547
-999,Vandervoort,87,34.3814972,-94.3657673
-999,Wickes,754,34.3031655,-94.3382652
-999,Board Camp,-999,34.5378842,-94.0954828
County Seat,Mena,5737,34.5862171,-94.2396554
-999,Moreland,-999,35.3675821,-92.9985046
-999,Scottsville,-999,35.4486925,-93.0465615
-999,Appleton,-999,35.4253584,-92.8743347
-999,Atkins,3016,35.2464719,-92.9365581
-999,Dover,1378,35.4014712,-93.1143407
-999,Pottsville,2838,35.2481394,-93.049061
-999,London,1039,35.328973,-93.2529553
-999,Hector,450,35.4673031,-92.9748932
-999,Smyrna,-999,35.6509126,-92.9198925
County Seat,Russellville,27920,35.2784173,-93.1337856
-999,Hazen,1468,34.7809263,-91.5809651
-999,Fredonia (Biscoe),363,34.818725,-91.4103882
-999,Ulm,170,34.5759299,-91.4606828
-999,Hickory Plains,-999,34.9900884,-91.7368032
-999,Brasfield,-999,34.83236724,-91.38085992
County Seat,De Valls Bluff,619,34.7848162,-91.458463
County Seat,Des Arc,1717,34.9770353,-91.4951307
-999,Mabelvale,-999,34.6550928,-92.3865432
-999,Marche,-999,34.8634232,-92.3623759
-999,Parkers,-999,34.6184265,-92.3157074
-999,College Station,600,34.7081479,-92.2212592
-999,Gibson,3543,34.8842563,-92.235705
-999,Hensley,139,34.5053723,-92.2057037
-999,Sweet Home,849,34.6864815,-92.2423711
-999,Woodson,403,34.5292609,-92.2109816
-999,Alexander,2901,34.6295373,-92.4412674
-999,McAlmont,1873,34.808424,-92.181814
-999,Cammack Village,768,34.7781471,-92.3490418
-999,North Little Rock,62304,34.769536,-92.2670941
-999,Jacksonville,28364,34.8662005,-92.1101458
-999,Maumelle,17163,34.8667565,-92.4043219
-999,Sherwood,29523,34.8150907,-92.2243153
-999,Wrightsville,2114,34.6023156,-92.216815
-999,Natural Steps,426,34.8620342,-92.4754356
-999,Roland,746,34.9006447,-92.4982142
-999,Iron Springs,-999,34.5895379,-92.3257078
-999,Ferndale,11415,34.7789801,-92.5576604
-999,Pinnacle,-999,34.8256461,-92.4968252
-999,Sylvan Hills,-999,34.8364793,-92.2312601
-999,Gravel Ridge,-999,34.868423,-92.1907037
State Capital County Seat,Little Rock,193524,34.7464809,-92.2895948
-999,Reyno,456,36.3628411,-90.7537276
-999,Biggers,347,36.3325643,-90.8062287
-999,Maynard,426,36.4197853,-90.8973438
-999,O'Kean,194,36.1692343,-90.8142829
-999,Ravenden Springs,118,36.316455,-91.2226306
-999,Dalton,-999,36.421175,-91.1415178
-999,Warm Springs,-999,36.48028564,-91.05151367
County Seat,Pocahontas,6608,36.2614555,-90.971233
-999,Colt,378,35.1314789,-90.8112245
-999,Palestine,681,34.9723153,-90.9026158
-999,Hughes,1441,34.9492613,-90.4714905
-999,Madison,769,35.0131472,-90.7226097
-999,Caldwell,555,35.0745353,-90.8167799
-999,Wheatley,355,34.9128719,-91.1101221
-999,Widener,273,35.023425,-90.6848307
-999,Goodwin,-999,34.9381496,-91.0209529
-999,Round Pond,-999,35.0625913,-90.619551
County Seat,Forrest City,15371,35.0081474,-90.7898342
-999,Detonti,-999,34.4973161,-92.5087697
-999,Vimy Ridge,-999,34.6012043,-92.4134886
-999,East End,6998,34.5506494,-92.3409861
-999,Salem,2607,34.6289814,-92.558216
-999,Haskell,3990,34.5014817,-92.636552
-999,Bryant,16688,34.5959265,-92.4890469
-999,Bauxite,487,34.5556489,-92.5212702
-999,Shannon Hills,3143,34.6200931,-92.3954325
-999,Traskwood,518,34.4492599,-92.6540523
-999,Avilla,896,34.6825921,-92.5851613
-999,Owensville,-999,34.6159245,-92.8215587
-999,Paron,-999,34.7728686,-92.7585001
County Seat,Benton,30681,34.5645372,-92.586828
-999,Parks,-999,34.8020445,-93.9607601
-999,Y City,-999,34.7348248,-94.0771521
-999,Black Fork,-999,34.7670479,-94.4310542
-999,Blue Ball,-999,34.9623161,-93.7085301
-999,Boles,-999,34.7795459,-94.0490959
-999,Cauthron,-999,34.920933,-94.2974359
-999,Cedar Creek,-999,34.7853763,-93.8665912
-999,Abbott,356,35.0734293,-94.1938205
-999,Bates,-999,34.9081561,-94.3868845
-999,Harvey,-999,34.8459294,-93.7852
-999,Hon,-999,34.9392654,-94.1813209
County Seat,Waldron,3618,34.8984323,-94.0907634
-999,Harriet,-999,35.9934068,-92.5204394
-999,Rock Springs,-999,35.9447966,-92.5354396
-999,Snowball,-999,35.9064651,-92.8218344
-999,Witts Springs,-999,35.7681338,-92.8668359
-999,Leslie,441,35.8303543,-92.5579397
-999,Gilbert,28,35.9878524,-92.7162763
-999,Pindall,112,36.0661852,-92.8812807
-999,Saint Joe,132,36.0300744,-92.8046118
-999,Landis,-999,35.9395186,-92.4421041
County Seat,Marshall,1355,35.9089643,-92.6312746
-999,Washburn,-999,35.168427,-94.0935399
-999,Barling,4649,35.325647,-94.3016006
-999,Hackett,812,35.1903732,-94.4110494
-999,Hartford,642,35.0228761,-94.3813277
-999,Bonanza,575,35.2392614,-94.4260494
-999,Huntington,635,35.0823184,-94.2632668
-999,Lavaca,2289,35.3362015,-94.1732635
-999,Mansfield,1139,35.059541,-94.2527108
-999,Midland,325,35.0931523,-94.3532704
-999,Central City,502,35.3192578,-94.2521546
County Seat,Fort Smith,86209,35.3859242,-94.3985475
County Seat,Greenwood,8952,35.2156489,-94.2557663
-999,Provo,-999,34.037614,-94.1076957
-999,Horatio,1044,33.9384482,-94.3571494
-999,Lockesburg,739,33.9673375,-94.1685312
-999,Ben Lomond,145,33.8353952,-94.1185283
-999,Gillham,160,34.1692789,-94.3163178
-999,Paraloma,-999,33.7978962,-94.0190798
County Seat,De Queen,6594,34.0378916,-94.3413168
-999,Evening Shade,432,36.071737,-91.6193075
-999,Hardy,772,36.3158994,-91.4826388
-999,Cave City,1904,35.9417397,-91.5484709
-999,Cherokee Village,4671,36.2978443,-91.515973
-999,Highland,1045,36.2759002,-91.5240287
-999,Williford,75,36.2528453,-91.3559678
-999,Sidney,181,36.003127,-91.6598637
-999,Center,-999,36.1497914,-91.5109716
County Seat,Ash Flat,1082,36.2239566,-91.6084751
-999,Fox,-999,35.7914653,-92.2976558
-999,Old Lexington,-999,35.7197997,-92.4109914
-999,Timbo,-999,35.8709084,-92.3171009
-999,Fifty-Six,173,35.95759418,-92.2185924
-999,Flag,-999,35.8192429,-92.3943249
-999,Hanover,-999,35.8034084,-92.123763
-999,Saint James,-999,35.8384076,-91.9179249
-999,Alco,-999,35.8875749,-92.3671022
County Seat,Mountain View,2748,35.8684075,-92.1176521
-999,Lawson,-999,33.1967951,-92.4829253
-999,Mount Holly,-999,33.3026262,-92.9548857
-999,Calion,494,33.3290127,-92.5384853
-999,Norphlet,844,33.3159585,-92.6629349
-999,Huttig,597,33.0395719,-92.1826364
-999,Junction City,581,33.0162501,-92.7243243
-999,Smackover,1865,33.3648455,-92.7248822
-999,Strong,558,33.10960072,-92.36014814
-999,Felsenthal,150,33.0595709,-92.1568025
-999,Urbana,-999,33.1595732,-92.4459795
-999,Wesson,-999,33.1154128,-92.7626597
-999,New London,-999,33.1884591,-92.3393087
-999,Newell,-999,33.165966,-92.7446041
County Seat,El Dorado,18884,33.20763,-92.6662674
-999,Bee Branch,-999,35.4509118,-92.3946005
-999,Fairfield Bay,2338,35.5942441,-92.2779324
-999,Damascus,382,35.367302,-92.4096005
-999,Shirley,291,35.6561884,-92.3193224
-999,Dennard,530,35.7567444,-92.5246054
-999,Formosa,-999,35.4631338,-92.5101584
-999,Morganton,-999,35.4725782,-92.3395996
-999,Scotland,-999,35.5275782,-92.611828
County Seat,Clinton,2602,35.5914666,-92.4604361
-999,Evansville,-999,35.7953609,-94.4968843
-999,Spring Valley,-999,36.176187,-93.9349197
-999,Summers,-999,35.9811927,-94.4916067
-999,Brentwood,-999,35.8600807,-94.1071471
-999,Rhea,-999,36.0142478,-94.4029917
-999,Elkins,2648,36.0014682,-94.0082547
-999,Elm Springs,1535,36.2061894,-94.2343729
-999,Farmington,5974,36.0420248,-94.2471515
-999,Greenland,1259,35.9942472,-94.1752048
-999,Prairie Grove,4380,35.9759145,-94.3177103
-999,Johnson,3354,36.1328564,-94.1654821
-999,Lincoln,2249,35.949526,-94.4235482
-999,Springdale,69797,36.1867442,-94.1288142
-999,Tontitown,2460,36.1778565,-94.2335396
-999,West Fork,2317,35.9242477,-94.1885387
-999,Winslow,391,35.8009145,-94.1349259
-999,Goshen,1071,36.1011886,-93.9913099
-999,Durham,-999,35.9495238,-93.9804761
-999,Dutch Mills,-999,35.875638,-94.4916065
County Seat,Fayetteville,73580,36.0625795,-94.1574263
-999,El Paso,-999,35.1261966,-92.0954252
-999,Steprock,-999,35.4289704,-91.6876384
-999,Floyd,-999,35.1948069,-91.9676445
-999,Center Hill,-999,35.2625841,-91.8840312
-999,Bald Knob,2897,35.3098066,-91.5679114
-999,Beebe,7315,35.0706424,-91.8795856
-999,Bradford,759,35.4231381,-91.4559649
-999,Pangburn,601,35.4267476,-91.8368095
-999,Judsonia,2019,35.270085,-91.6398575
-999,Kensett,1648,35.2317523,-91.6676357
-999,McRae,682,35.1128642,-91.8223618
-999,Higginson,621,35.1948081,-91.7126368
-999,Letona,255,35.361749,-91.8293085
-999,Garner,284,35.1414751,-91.7862498
-999,Georgetown,124,35.1270328,-91.4551301
-999,Griffithville,225,35.1236984,-91.6451348
-999,West Point,185,35.2070306,-91.6143009
-999,Rose Bud,482,35.3314708,-92.0812595
-999,Russell,216,35.3625835,-91.5076324
-999,Sidon,-999,35.3445266,-91.9393116
County Seat,Searcy,22858,35.2506406,-91.7362488
-999,Gregory,-999,35.1553662,-91.3431835
-999,Hillemann,-999,35.12259,-91.0890106
-999,Howell,-999,35.1137008,-91.2454037
-999,Cotton Plant,649,35.0081476,-91.2512373
-999,Patterson,452,35.2567534,-91.2351255
-999,McCrory,1729,35.2561979,-91.2001246
-999,Hunter,105,35.0528692,-91.1262338
-999,Fitzhugh,-999,35.3581399,-91.3229058
-999,Grays,-999,35.2264762,-91.2340144
-999,Dixie,-999,35.0767566,-91.3631839
-999,Penrose,-999,35.1928663,-91.050954
-999,Riverside,-999,35.293697,-91.2412369
County Seat,Augusta,2199,35.2823079,-91.3654063
-999,Gravelly,-999,34.8831503,-93.687419
-999,Waltreak,-999,34.9839819,-93.6124159
-999,Briggsville,-999,34.9339818,-93.494357
-999,Belleville,441,35.0931455,-93.4485201
-999,Ola,1281,35.0323119,-93.2232345
-999,Plainview,608,34.9895354,-93.2974044
-999,Havana,375,35.1112012,-93.529634
-999,Corinth,70,35.0734235,-93.429353
-999,Waveland,-999,35.1237017,-93.6282484
-999,Birta,-999,35.0173117,-93.1335098
-999,Centerville,-999,35.1128655,-93.1687878
-999,Bluffton,-999,34.9053717,-93.6007494
-999,Chickalah,-999,35.164254,-93.2785128
-999,Onyx,-999,34.8514823,-93.4079661
-999,Rover,-999,34.9464811,-93.4054648
County Seat,Danville,2409,35.0539792,-93.3935185
County Seat,Dardanelle,4745,35.2231408,-93.1579532
-999,Chinle,4518,36.1544483,-109.5526072
-999,Lukachukai,1701,36.416946,-109.2287125
-999,Many Farms,1348,36.3527792,-109.6178867
-999,Fort Defiance,3624,35.7444602,-109.0764828
-999,Ganado,1210,35.7114022,-109.5420492
-999,Houck,1024,35.2830803,-109.2070391
-999,Dennehotso,746,36.8458351,-109.8465046
-999,McNary,528,34.0736564,-109.8570472
-999,Nazlini,489,35.8963986,-109.4487147
-999,Red Mesa,480,36.96130242,-109.356435
-999,Rock Point,642,36.7180568,-109.6259429
-999,Rough Rock,414,36.4072229,-109.8728929
-999,Round Rock,789,36.5130564,-109.4734394
-999,Saint Michaels,1443,35.6447402,-109.0956492
-999,Sawmill,748,35.9025111,-109.165931
-999,Tsaile,1205,36.3033006,-109.2156668
-999,Window Rock,2712,35.66933433,-109.0551513
-999,Steamboat,284,35.7513983,-109.8478915
-999,Teec Nos Pos,730,36.9211097,-109.0856582
-999,Eagar,4885,34.1111581,-109.291475
-999,Springerville,1961,34.1333799,-109.2859196
-999,Alpine,145,33.8481076,-109.1431325
-999,Concho,38,34.4753132,-109.6059405
-999,Cornfields,255,35.652235,-109.6792759
-999,Cottonwood,226,36.0730594,-109.8923374
-999,Greer,41,34.0100477,-109.4587014
-999,Klagetoh,242,35.501962,-109.5281609
-999,Lupton,25,35.3539127,-109.0537017
-999,Nutrioso,26,33.953106,-109.2092478
-999,Red Rock,169,36.6044451,-109.0606531
-999,Sanders,630,35.2164137,-109.3337118
-999,Sehili,135,36.2797254,-109.1678777
-999,Toyei,13,35.7025091,-109.9381725
-999,Vernon,122,34.2575429,-109.692878
-999,Wide Ruins,176,35.4194639,-109.4964948
-999,Salina,-999,36.022227,-109.8673365
-999,Chambers,-999,35.1886352,-109.4331614
-999,Pinta,-999,35.0822462,-109.630668
-999,Mexican Water,-999,36.9669462,-109.6378902
County Seat,Saint Johns,3480,34.5058698,-109.3609327
-999,Cochise,-999,32.1136897,-109.9217343
-999,Dos Cabezas,-999,32.1753571,-109.6133977
-999,Fairbank,-999,31.7231456,-110.1884107
-999,Gleeson,-999,31.7339802,-109.8297941
-999,Hereford,-999,31.4384325,-110.0978554
-999,Sierra Vista Southeast,14797,31.4524491,-110.2159717
-999,Naco,1046,31.3353801,-109.9481297
-999,Pirtleville,1744,31.3570467,-109.561734
-999,Saint David,1699,31.9042517,-110.2142399
-999,Benson,5105,31.9678611,-110.2945174
-999,Douglas,17378,31.3445471,-109.5453447
-999,Sierra Vista,43888,31.5545394,-110.3036912
-999,Tombstone,1380,31.7128683,-110.0675764
-999,Willcox,3757,32.2528519,-109.8320124
-999,Huachuca City,1853,31.6278703,-110.3339678
-999,Bowie,449,32.3264652,-109.4870088
-999,Dragoon,209,32.0281367,-110.0386795
-999,Elfrida,459,31.6853714,-109.6870138
-999,McNeal,238,31.6012067,-109.6700697
-999,Mescal,1812,31.9900824,-110.4353531
-999,Miracle Valley,644,31.3792677,-110.153411
-999,Palominas,212,31.3798232,-110.1184106
-999,San Simon,165,32.2678563,-109.2275596
-999,Sunizona,281,31.8820329,-109.6533992
-999,Paul Spur,-999,31.3662127,-109.7345151
-999,Pearce,-999,31.9050865,-109.8206232
-999,Portal,-999,31.9137028,-109.1414495
-999,Curtiss,-999,31.88453,-110.2297962
-999,Lewis Springs,-999,31.5812057,-110.1420227
-999,Double Adobe,-999,31.4666748,-109.6900024
-999,Nicksville,-999,31.43847656,-110.2489014
County Seat,Bisbee,5575,31.4481547,-109.9284084
-999,Grand Canyon,-999,36.0544273,-112.139336
-999,Gray Mountain,-999,35.7458313,-111.473479
-999,Jacob Lake,-999,36.7133235,-112.2162896
-999,Bitter Springs,452,36.6285991,-111.6543255
-999,Cameron,885,35.8758285,-111.4129207
-999,Kachina Village,2622,35.0969581,-111.6926602
-999,Kaibito,1522,36.5972186,-111.0743114
-999,Leupp,951,35.28326375,-110.9686992
-999,Moenkopi,964,36.1111043,-111.2223624
-999,Mountainaire,1119,35.0852924,-111.6659925
-999,Munds Park,631,34.945574,-111.6401551
-999,Parks,1188,35.2605664,-111.9487743
-999,Tonalea,549,36.3224923,-110.9634781
-999,Tuba City,8611,36.1349928,-111.2398625
-999,Tusayan,558,35.9735954,-112.1265569
-999,Supai,208,36.2369266,-112.6890791
-999,Page,7247,36.9147222,-111.4558333
-999,Sedona,10031,34.8697395,-111.7609896
-999,Williams,3023,35.2494566,-112.1910031
-999,Fredonia,1314,36.945542,-112.5265889
-999,Doney Park,5395,35.2686709,-111.505284
-999,Fort Valley,779,35.2554165,-111.7252755
-999,Tolani Lake,280,35.4347308,-110.8445833
-999,Valle,832,35.6536071,-112.1384988
-999,North Rim,-999,36.2105382,-112.0612802
-999,Leupp Corner,-999,35.0741838,-110.8579162
-999,Two Guns,-999,35.1177914,-111.0934765
-999,Willaha,-999,35.7619357,-112.2640586
-999,Marble Canyon,-999,36.8155432,-111.6376612
-999,Bellemont,-999,35.2380657,-111.8334974
-999,Red Lake,-999,36.3224925,-110.9493112
-999,Canyon Diablo,-999,35.1627902,-111.117644
-999,Mormon Lake,-999,34.9083543,-111.4632051
-999,Quivero,-999,35.532501,-112.1907221
-999,Happy Jack,-999,34.7433546,-111.4073685
-999,Winona,-999,35.2050122,-111.4082096
-999,Big Springs,-999,36.60168457,-112.3499146
-999,Forest Lakes Estates,-999,34.33892822,-110.7998047
County Seat,Flagstaff,65870,35.1980671,-111.6512725
-999,Christmas,-999,33.0622863,-110.7426052
-999,Claypool,1538,33.4111659,-110.8426113
-999,Canyon Day,1209,33.7847735,-110.0264881
-999,Gisela,570,34.1017053,-111.2798554
-999,Peridot,1350,33.3103355,-110.4553768
-999,Pine,1963,34.3844739,-111.4551407
-999,San Carlos,4038,33.3453349,-110.4531551
-999,Tonto Basin,1424,33.8317111,-111.294575
-999,Young,666,34.1014318,-110.9637358
-999,Strawberry,961,34.4078063,-111.4934754
-999,Hayden,662,33.0047879,-110.7853836
-999,Miami,1837,33.3992217,-110.8687232
-999,Payson,15301,34.2308684,-111.3251355
-999,Star Valley,2310,34.2550351,-111.2584672
-999,Winkelman,353,32.9875659,-110.7709387
-999,Carrizo,127,33.9939364,-110.2887199
-999,Cedar Creek,318,33.8956044,-110.1737157
-999,Christopher Creek,156,34.3153145,-111.0170742
-999,Cutter,74,33.3528348,-110.6526053
-999,Jakes Corner,76,34.0105961,-111.3192999
-999,Kohls Ranch,46,34.325313,-111.094298
-999,Roosevelt,28,33.6675484,-111.1342893
-999,Rye,77,34.1094822,-111.3537462
-999,Tonto Village,256,34.316146,-111.1320764
-999,Washington Park,70,34.4244738,-111.2676359
-999,Central Heights,-999,33.412555,-110.8148328
-999,Midland City,-999,33.4119993,-110.8242775
County Seat,Globe,7532,33.3942223,-110.7864984
-999,Cactus Flat,1518,32.7584007,-109.7161912
-999,Calva,-999,33.1806128,-110.1864783
-999,Glenbar,-999,32.9167304,-109.8581374
-999,Swift Trail Junction,2935,32.7297898,-109.7139681
-999,Pima,2387,32.8961755,-109.8275815
-999,Thatcher,4865,32.8492323,-109.7592479
-999,Bryce,175,32.9289524,-109.8278595
-999,Bylas,1962,33.134281,-110.120044
-999,Central,645,32.8675652,-109.7928591
-999,Fort Thomas,374,33.0370042,-109.9653612
-999,San Jose,506,32.8200654,-109.5920211
-999,Solomon,426,32.8125658,-109.6339667
-999,Geronimo,-999,33.0770031,-110.0350848
-999,Tanque,-999,32.6089575,-109.5381267
-999,Artesia,-999,32.6981232,-109.7075779
County Seat,Safford,9566,32.8339546,-109.70758
-999,Morenci,1489,33.0786735,-109.3653514
-999,Duncan,696,32.7214599,-109.1053408
-999,Franklin,92,32.6775723,-109.0792285
-999,York,557,32.8936777,-109.2028447
-999,Sheldon,-999,32.8147905,-109.1722877
-999,Granville,-999,33.1889507,-109.3825756
County Seat,Clifton,3311,33.0508966,-109.2961826
-999,Harcuvar,-999,33.7600307,-113.6532641
-999,Cibola,250,33.3164215,-114.664957
-999,Bouse,996,33.9325235,-114.0057748
-999,Ehrenberg,1470,33.6041914,-114.5252322
-999,Parker Strip,662,34.219409,-114.198243
-999,Poston,285,33.9905733,-114.3963424
-999,Salome,1530,33.7811416,-113.6146517
-999,Wenden,728,33.8225302,-113.5415936
-999,Quartzsite,3677,33.6639137,-114.2299486
-999,Brenda,676,33.6797515,-113.9446616
-999,Cienega Springs,1798,34.1886271,-114.2246714
-999,La Paz Valley,699,33.5769712,-114.2418914
-999,Utting,126,33.8389157,-113.8868829
-999,Vicksburg,597,33.7444747,-113.7521564
-999,Hope,-999,33.7230865,-113.7024321
County Seat,Parker,3083,34.1500162,-114.2891177
-999,Beardsley,-999,33.6614262,-112.3790519
-999,Cashion,-999,33.4353203,-112.2979334
-999,Chandler Heights,-999,33.2119977,-111.6862444
-999,Higley,-999,33.3072727,-111.7209689
-999,New River,14952,33.9158687,-112.1359906
-999,Rio Verde,1811,33.7225429,-111.6756942
-999,Chandler,236123,33.3061605,-111.8412502
-999,Avondale,76238,33.4355977,-112.3496021
-999,Sun City,37499,33.5975393,-112.2718239
-999,Sun City West,24535,33.6619819,-112.3412726
-999,Sun Lakes,13975,33.2111623,-111.8754166
-999,El Mirage,31797,33.6130942,-112.3246042
-999,Glendale,226721,33.5386523,-112.1859866
-999,Goodyear,65275,33.4353199,-112.3582135
-999,Litchfield Park,5476,33.4933743,-112.3579364
-999,Mesa,439041,33.4222685,-111.8226402
-999,Peoria,154065,33.5805955,-112.2373779
-999,Buckeye,50876,33.3703197,-112.5837766
-999,Scottsdale,217385,33.5092103,-111.8990327
-999,Surprise,117517,33.6305938,-112.333216
-999,Tempe,161719,33.414768,-111.9093095
-999,Tolleson,6545,33.4500425,-112.259321
-999,Queen Creek,26361,33.2486639,-111.6342993
-999,Fountain Hills,22489,33.6117105,-111.7173613
-999,Gila Bend,1922,32.9478236,-112.7168305
-999,Gilbert,208453,33.3528264,-111.789027
-999,Guadalupe,5523,33.3708798,-111.9629216
-999,Paradise Valley,12820,33.5311541,-111.9426452
-999,Carefree,3363,33.8222611,-111.918203
-999,Cave Creek,5015,33.8333333,-111.9508333
-999,Wickenburg,6363,33.9686412,-112.729622
-999,Youngtown,6156,33.5939281,-112.3029362
-999,Aguila,798,33.9428069,-113.1740805
-999,Anthem,21700,33.8672581,-112.1468235
-999,Arlington,194,33.3255978,-112.7640604
-999,Citrus Park,4028,33.5486504,-112.4443298
-999,Kaka,141,32.5097805,-112.3165308
-999,Komatke,821,33.2933797,-112.1754274
-999,Morristown,227,33.8566993,-112.6232297
-999,Theba,158,32.9194921,-112.8946145
-999,Tonopah,60,33.49365,-112.9371249
-999,Wintersburg,136,33.4244845,-112.8679544
-999,Wittmann,763,33.7764231,-112.5285046
-999,Gila Crossing,621,33.2767135,-112.1668159
-999,Laveen,-999,33.3628228,-112.169317
-999,Palo Verde,-999,33.3480976,-112.6773908
-999,Sentinel,-999,32.8581047,-113.2132371
-999,Midway,-999,32.6336641,-112.8551604
-999,Piedra,-999,32.9047709,-112.9854509
-999,Camp Creek,-999,33.9117056,-111.816813
-999,Bosque,-999,32.9664337,-112.5982151
-999,Sunflower,-999,33.8642086,-111.4676349
-999,Tortilla Flat,-999,33.5264365,-111.3898523
State Capital County Seat,Phoenix,1445632,33.4483771,-112.0740373
-999,Davis Dam,-999,35.1799991,-114.5663541
-999,Arizona Village,946,34.8530598,-114.5844085
-999,Golden Valley,8370,35.2233312,-114.2230108
-999,Kaibab,124,36.896652,-112.7407596
-999,Dolan Springs,2033,35.5919357,-114.2732932
-999,Mohave Valley,2616,34.9330585,-114.5888533
-999,Peach Springs,1090,35.5291589,-113.425491
-999,Willow Valley,1062,34.9119475,-114.6066314
-999,Bullhead City,39540,35.1477774,-114.5682983
-999,Lake Havasu City,52527,34.483901,-114.3224548
-999,Colorado City,4821,36.9902621,-112.9757702
-999,Antares,126,35.419715,-113.8085563
-999,Beaver Dam,1962,36.8994213,-113.9327433
-999,Cane Beds,448,36.9463736,-112.8943777
-999,Centennial Park,1264,36.9538064,-112.981325
-999,Chloride,271,35.4144379,-114.1994006
-999,Crozier,14,35.4249939,-113.6493854
-999,Golden Shores,2047,34.7818825,-114.4777467
-999,Hackberry,68,35.3691614,-113.7271643
-999,Katherine,103,35.2222207,-114.5619097
-999,Littlefield,308,36.8871992,-113.9296876
-999,McConnico,70,35.1438892,-114.0935631
-999,Meadview,1224,36.0022091,-114.0682936
-999,Moccasin,89,36.9094295,-112.7588162
-999,Oatman,135,35.0263915,-114.3835698
-999,Topock,10,34.7183405,-114.4871836
-999,Truxton,134,35.4849925,-113.563551
-999,Valentine,38,35.3874951,-113.6577185
-999,White Hills,323,35.7380448,-114.3974662
-999,Wikieup,133,34.7033462,-113.6113242
-999,Yucca,126,34.8722287,-114.1493965
-999,Fort Mohave,14364,35.0003955,-114.57485
-999,Mount Trumbull,-999,36.4119253,-113.3254964
-999,Franconia,-999,34.7394521,-114.2682879
-999,Griffith,-999,35.0666697,-114.1166191
-999,Harris,-999,35.136945,-114.0838407
-999,Walapai,-999,35.3444389,-113.8841137
-999,Berry,-999,35.2527739,-113.9718931
County Seat,Kingman,28068,35.189443,-114.0530065
-999,Hotevilla,-999,35.9277802,-110.6729158
-999,Cibecue,1713,34.0447693,-110.4853908
-999,Chilchinbito,506,36.527222,-110.0823452
-999,Greasewood,547,35.5225125,-109.857338
-999,Jeddito,293,35.7744513,-110.1367899
-999,Kayenta,5189,36.7277769,-110.2545767
-999,Keams Canyon,304,35.812506,-110.1951253
-999,Kykotsmovi,746,35.8741701,-110.6234701
-999,Dilkon,1184,35.3852904,-110.3206843
-999,East Fork,699,33.7981065,-109.9303759
-999,Shongopovi,831,35.80759839,-110.5293254
-999,Shonto,591,36.5944422,-110.6423629
-999,Pinon,904,36.1008342,-110.2259609
-999,Second Mesa,962,35.7933387,-110.505134
-999,Whiteriver,4104,33.8369944,-109.9642664
-999,Show Low,10660,34.2542084,-110.0298327
-999,Winslow,9655,35.0241873,-110.6973571
-999,Pinetop-Lakeside,4282,34.1425438,-109.9603843
-999,Snowflake,5590,34.5133698,-110.0784491
-999,Taylor,4112,34.4650374,-110.0912265
-999,Clay Springs,401,34.3617055,-110.2953961
-999,Fort Apache,143,33.7906068,-109.98871
-999,Hon-Dah,812,34.0859743,-109.9149519
-999,Indian Wells,255,35.4055684,-110.0848452
-999,Joseph City,1386,34.9558574,-110.334014
-999,Lake of the Woods,4094,34.1639323,-109.9895522
-999,Linden,2597,34.2850405,-110.1570584
-999,Low Mountain,757,35.9402821,-110.1134557
-999,Pinedale,487,34.3075397,-110.2515054
-999,Seba Dalkai,136,35.4994543,-110.4484653
-999,Sun Valley,316,34.98058,-110.0581752
-999,Tees Toh,448,35.4994544,-110.4056866
-999,White Cone,817,35.60754209,-110.0673746
-999,White Mountain Lake,2205,34.3486511,-109.997889
-999,Woodruff,191,34.7814188,-110.0434504
-999,Polacca,-999,35.8366716,-110.3815198
-999,Hibbard,-999,34.9700233,-110.5184618
-999,Penzance,-999,34.9053033,-110.2548458
-999,Aripine,-999,34.4083712,-110.4309553
-999,Old Oraibi,-999,35.8763922,-110.6404148
-999,Manila,-999,34.9650237,-110.4134598
-999,Overgaard,-999,34.3908717,-110.5531791
-999,Heber,-999,34.4314262,-110.5940135
-999,Bacavi,-999,35.92370605,-110.6572876
County Seat,Holbrook,5053,34.9022483,-110.1581768
-999,Childs,-999,32.4528348,-112.8434877
-999,Corona de Tucson,5675,31.96536,-110.7756402
-999,Ajo,3304,32.3717249,-112.8607099
-999,Casas Adobes,66795,32.3234078,-110.9950966
-999,Catalina,7569,32.5055556,-110.9211111
-999,Catalina Foothills,50796,32.297853,-110.9187037
-999,Green Valley,21391,31.86580957,-110.9957578
-999,Littletown,873,32.1303561,-110.8728658
-999,Picture Rocks,9563,32.3459069,-111.2462146
